total_lots,lot_type,lots_available,carpark_number,update_datetime,address,x_coord,y_coord,car_park_type,type_of_parking_system,short_term_parking,free_parking,night_parking,car_park_decks,gantry_height,car_park_basement,latitude,longitude
105,C,44,HE12,2023-02-27T09:37:52,BLK 78/81 REDHILL LANE,26367.5806,30069.2434,SURFACE CAR PARK,ELECTRONIC PARKING,WHOLE DAY,SUN & PH FR 7AM-10.30PM,YES,0.0,4.5,N,1.2882100231321911,103.8186506240624
583,C,208,HLM,2023-02-27T09:37:40,BLK 533A HONG LIM MSCP,29354.6692,29687.508,MULTI-STOREY CAR PARK,ELECTRONIC PARKING,WHOLE DAY,NO,YES,11.0,1.9,N,1.2847577556273693,103.84549081920295
329,C,212,RHM,2023-02-27T09:37:52,BLK 88A REDHILL CLOSE,26359.4531,29876.1692,MULTI-STOREY CAR PARK,ELECTRONIC PARKING,WHOLE DAY,SUN & PH FR 7AM-10.30PM,YES,10.0,1.9,N,1.2864639274829988,103.81857760519372
97,C,21,BM29,2023-02-27T09:37:59,BLK 163 BUKIT MERAH CENTRAL,26194.9184,29563.3295,BASEMENT CAR PARK,ELECTRONIC PARKING,WHOLE DAY,NO,YES,1.0,2.0,Y,1.2836347060925115,103.8170992125997
96,C,0,Q81,2023-02-27T09:37:34,BLK 43 HOLLAND DRIVE,23531.2041,32206.3235,SURFACE CAR PARK,ELECTRONIC PARKING,WHOLE DAY,NO,YES,0.0,9.99,N,1.3075367428678997,103.79316432035691
167,C,23,C20,2023-02-27T09:37:38,BLK 449-451 CLEMENTI AVE 3,20425.9232,32848.95,SURFACE CAR PARK,ELECTRONIC PARKING,WHOLE DAY,NO,YES,0.0,4.5,N,1.313347820827674,103.76526174661946
228,C,100,FR3M,2023-02-27T09:37:36,BLK 8A EMPRESS ROAD,24983.1434,33218.9585,MULTI-STOREY CAR PARK,ELECTRONIC PARKING,WHOLE DAY,NO,YES,12.0,2.15,N,1.3166948314211013,103.80621058640887
289,C,182,C32,2023-02-27T09:37:45,BLK 514-519 WEST COAST ROAD,19738.0729,32326.8057,SURFACE CAR PARK,ELECTRONIC PARKING,WHOLE DAY,SUN & PH FR 7AM-10.30PM,YES,0.0,4.5,N,1.3086255588800983,103.75908121333663
332,C,158,C6,2023-02-27T09:37:42,BLK 328-334 CLEMENTI AVE 2,20696.2978,32975.0306,SURFACE CAR PARK,ELECTRONIC PARKING,WHOLE DAY,SUN & PH FR 7AM-10.30PM,YES,0.0,4.5,N,1.3144881139131142,103.76769116550201
273,C,148,TG2,2023-02-27T09:37:36,BLK 49 TO 54 TEBAN GARDENS,17347.6784,33758.6936,SURFACE CAR PARK,ELECTRONIC PARKING,WHOLE DAY,SUN & PH FR 7AM-10.30PM,YES,0.0,3.8,N,1.321574296948077,103.73760190016449
543,C,333,BP1,2023-02-27T09:37:43,BLK 101/109 BUKIT PURMEI ROAD,27059.7441,28364.7207,SURFACE CAR PARK,ELECTRONIC PARKING,WHOLE DAY,SUN & PH FR 7AM-10.30PM,YES,0.0,4.5,N,1.2727949460019108,103.82487004638605
133,C,97,TG1,2023-02-27T09:37:44,BLK 24 & 25 TEBAN GARDENS,17351.3149,33950.9498,SURFACE CAR PARK,ELECTRONIC PARKING,WHOLE DAY,SUN & PH FR 7AM-10.30PM,YES,0.0,0.0,N,1.323312992864623,103.7376345093954
189,C,144,TGM2,2023-02-27T09:37:36,BLK 61 TEBAN GARDENS RD,17424.7554,33821.7982,MULTI-STOREY CAR PARK,ELECTRONIC PARKING,WHOLE DAY,SUN & PH FR 7AM-10.30PM,YES,9.0,2.1,N,1.3221450186133503,103.73829445496823
138,C,76,TE14,2023-02-27T09:37:54,BLK 140/142 JALAN BUKIT MERAH,27503.2019,28827.5456,SURFACE CAR PARK,ELECTRONIC PARKING,7AM-10.30PM,SUN & PH FR 7AM-10.30PM,NO,0.0,4.5,N,1.2769805823717464,103.8288546648749
48,C,22,BM3,2023-02-27T09:37:33,BLK 49/50 HOY FATT ROAD,25574.8666,30013.7121,SURFACE CAR PARK,ELECTRONIC PARKING,WHOLE DAY,NO,YES,0.0,4.5,N,1.2877077662690217,103.81152776946917
612,C,121,BM9,2018-12-17T07:42:34,BLK 58/59 LENGKOK BAHRU,25889.8506,30167.4343,SURFACE CAR PARK,ELECTRONIC PARKING,WHOLE DAY,SUN & PH FR 7AM-10.30PM,YES,0.0,4.5,N,1.28909799857285,103.81435801840581
155,C,0,HG44,2023-02-27T09:37:40,BLK 681-684 HOUGANG AVENUES 4/8,33899.488,39516.6851,SURFACE CAR PARK,ELECTRONIC PARKING,WHOLE DAY,NO,YES,0.0,9.99,N,1.3736487904344832,103.88632970593206
82,C,27,HG64,2023-02-27T09:37:22,BLK 682-684 HOUGANG STREET 61,33895.9179,39593.254,SURFACE CAR PARK,ELECTRONIC PARKING,WHOLE DAY,NO,YES,0.0,0.0,N,1.3743412526148515,103.88629764128508
326,C,154,PM27,2023-02-22T11:20:24,BLK 578A PASIR RIS STREET 53,40606.3885,39551.3513,MULTI-STOREY CAR PARK,ELECTRONIC PARKING,WHOLE DAY,SUN & PH FR 7AM-10.30PM,YES,11.0,2.0,N,1.373960188897794,103.9465959696924
305,C,180,PM28,2023-02-27T09:37:27,BLK 586A PASIR RIS STREET 53,40736.5955,39633.1743,MULTI-STOREY CAR PARK,ELECTRONIC PARKING,WHOLE DAY,SUN & PH FR 7AM-10.30PM,YES,10.0,2.0,N,1.3747001092714635,103.9477660061047
225,C,132,TM36,2023-02-27T09:37:26,BLK 515 TAMPINES CTRL 7,39769.2878,37693.9606,MULTI-STOREY CAR PARK,ELECTRONIC PARKING,WHOLE DAY,NO,YES,4.0,2.15,N,1.3571629858521386,103.93907329779347
244,C,144,TM37,2023-02-08T17:40:48,BLK 518 TAMPINES CTRL 7,39717.4254,37584.9156,MULTI-STOREY CAR PARK,ELECTRONIC PARKING,WHOLE DAY,NO,YES,4.0,2.15,N,1.3561768438388726,103.93860723824409
350,C,205,T50,2023-02-27T09:37:27,BLK 887-889 TAMPINES ST 81/AVENUE 3,38870.9497,36981.7596,SURFACE CAR PARK,ELECTRONIC PARKING,7AM-10.30PM,SUN & PH FR 7AM-10.30PM,NO,0.0,4.5,N,1.350722444483302,103.93100089511285
346,C,189,T51,2023-02-27T09:37:38,BLK 894-896 TAMPINES STREET 81,38948.9356,36763.5017,SURFACE CAR PARK,ELECTRONIC PARKING,7AM-10.30PM,SUN & PH FR 7AM-10.30PM,NO,0.0,0.0,N,1.348748572139392,103.93170156744114
247,C,166,TM43,2023-02-14T10:39:51,BLK 202A TAMPINES STREET 21,41234.0246,37276.5181,MULTI-STOREY CAR PARK,ELECTRONIC PARKING,WHOLE DAY,SUN & PH FR 7AM-10.30PM,YES,10.0,2.15,N,1.3533871776405688,103.95223471017103
30,C,0,T15,2023-02-22T10:54:33,BLK 201A/201C TAMPINES STREET 21,41292.6602,37256.6602,SURFACE CAR PARK,ELECTRONIC PARKING,WHOLE DAY,NO,YES,0.0,0.0,N,1.35320756420394,103.95276157879324
109,C,0,T16,2023-02-27T09:37:32,BLK 202/205 TAMPINES STREET 21,41242.6367,37183.9531,SURFACE CAR PARK,ELECTRONIC PARKING,WHOLE DAY,NO,YES,0.0,0.0,N,1.3525500507189219,103.95231205447516
228,C,96,T17,2023-02-27T09:37:02,BLK 201D/209/208A TAMPINES STREET 21,41349.1055,37121.3281,SURFACE CAR PARK,ELECTRONIC PARKING,WHOLE DAY,NO,YES,0.0,4.5,N,1.3519836463649708,103.95326871485535
81,C,0,T18,2023-02-27T09:37:05,BLK 201E TAMPINES STREET 21,41423.7376,37254.2715,SURFACE CAR PARK,ELECTRONIC PARKING,WHOLE DAY,NO,YES,0.0,0.0,N,1.3531859030595235,103.95393938972607
213,C,148,B9,2023-02-27T09:37:11,BLK 402/403 BEDOK NORTH AVENUE 3,39184.2416,34709.4842,SURFACE CAR PARK,ELECTRONIC PARKING,WHOLE DAY,SUN & PH FR 7AM-10.30PM,YES,0.0,4.5,N,1.3301727085826485,103.9338151792443
516,C,325,B10,2023-02-27T09:37:04,BLK 404/413 BEDOK NORTH AVENUE 3,39172.2903,34582.9441,SURFACE CAR PARK,ELECTRONIC PARKING,WHOLE DAY,SUN & PH FR 7AM-10.30PM,YES,0.0,4.5,N,1.3290283308949415,103.93370774409028
208,C,61,B14,2018-10-29T09:18:49,BLK 412/413 BEDOK NORTH AVENUE 2,38920.4797,34597.393,SURFACE CAR PARK,ELECTRONIC PARKING,WHOLE DAY,SUN & PH FR 7AM-10.30PM,YES,0.0,4.5,N,1.3291590929262382,103.93144509494549
143,C,53,WCB,2023-02-27T09:36:04,BLK 261/262/264 WATERLOO BASEMENT CAR PARK,30072.1484,31241.1484,BASEMENT CAR PARK,ELECTRONIC PARKING,WHOLE DAY,NO,YES,1.0,1.9,Y,1.298808293680484,103.85193775629874
93,C,29,ACB,2023-02-27T09:36:35,BLK 270/271 ALBERT CENTRE BASEMENT CAR PARK,30314.7936,31490.4942,BASEMENT CAR PARK,ELECTRONIC PARKING,WHOLE DAY,NO,YES,1.0,1.8,Y,1.3010632720874935,103.85411804993093
28,C,0,CY,2023-02-27T09:36:35,BLK 269/269A/269B CHENG YAN COURT CAR PARK,30264.3593,31442.1456,SURFACE CAR PARK,ELECTRONIC PARKING,7AM-10.30PM,NO,NO,0.0,0.0,N,1.3006260281130524,103.85366487138313
408,C,207,AM46,2023-02-27T09:37:39,BLK 588 ANG MO KIO STREET 52,30234.4145,39354.0323,MULTI-STOREY CAR PARK,ELECTRONIC PARKING,WHOLE DAY,NO,YES,5.0,2.15,N,1.3721783233233986,103.85339638441636
194,C,132,A12,2023-02-27T09:37:32,BLK 229/230 ANG MO KIO ST 22,28596.14,38948.38,SURFACE CAR PARK,ELECTRONIC PARKING,WHOLE DAY,SUN & PH FR 7AM-10.30PM,YES,0.0,0.0,N,1.3685098274818934,103.83867531323688
363,C,214,BE45,2023-02-27T09:37:30,BLK 275 BISHAN ST 24,29152.4171,37599.2039,MULTI-STOREY CAR PARK,ELECTRONIC PARKING,7AM-10.30PM,NO,NO,6.0,2.15,N,1.3563083436627195,103.8436737995863
707,C,396,BE39,2023-02-27T09:37:32,BLK 263A BISHAN STREET 22,28962.9515,37918.5499,MULTI-STOREY CAR PARK,ELECTRONIC PARKING,7AM-10.30PM,SUN & PH FR 7AM-10.30PM,NO,10.0,1.9,N,1.3591964018143061,103.84197133762822
339,C,201,BE40,2019-06-18T10:58:35,BLK 268A BISHAN STREET 24,29037.3835,37710.0917,MULTI-STOREY CAR PARK,ELECTRONIC PARKING,WHOLE DAY,SUN & PH FR 7AM-10.30PM,YES,10.0,1.9,N,1.357311177642305,103.84264015136309
453,C,347,Y79M,2023-02-27T09:37:50,BLK 465 YISHUN AVENUE 6,29856.603,45358.8531,MULTI-STOREY CAR PARK,ELECTRONIC PARKING,WHOLE DAY,NO,YES,15.0,2.15,N,1.4264837884583979,103.85000186245749
56,C,0,CR29,2023-02-27T09:37:41,BLK 29/30 KELANTAN LANE,30612.5155,32012.4666,SURFACE CAR PARK,ELECTRONIC PARKING,WHOLE DAY,SUN & PH FR 7AM-10.30PM,YES,0.0,4.5,N,1.3057837826214513,103.85679325981964
345,C,211,KLM,2023-02-27T09:35:31,BLK 31 KELANTAN LANE MSCP,30613.3563,32065.8984,MULTI-STOREY CAR PARK,ELECTRONIC PARKING,WHOLE DAY,SUN & PH FR 7AM-10.30PM,YES,7.0,1.8,N,1.306267000879174,103.85680081928476
270,C,153,SE34,2023-02-27T09:37:43,BLK 531/536 SERANGOON NORTH AVENUE 4,32597.8236,39566.3426,SURFACE CAR PARK,ELECTRONIC PARKING,WHOLE DAY,SUN & PH FR 7AM-10.30PM,YES,0.0,4.5,N,1.3740981072158853,103.87463332859025
65,C,0,KB7,2023-02-27T09:37:27,BLK 69 GEYLANG BAHRU,32135.5156,33759.7891,SURFACE CAR PARK,ELECTRONIC PARKING,WHOLE DAY,SUN & PH FR 7AM-10.30PM,YES,0.0,4.5,N,1.3215857812299283,103.87047836388133
187,C,88,SE31,2023-02-27T09:37:39,BLK 514/520 SERANGOON NORTH AVENUE 4,32490.834,39280.3789,SURFACE CAR PARK,ELECTRONIC PARKING,7AM-10.30PM,SUN & PH FR 7AM-10.30PM,NO,0.0,4.5,N,1.3715119708787575,103.8736719069539
15,C,14,J56,2023-02-27T09:36:44,BLK 130 JURONG GATEWAY ROAD,17537.9507,35231.3632,SURFACE CAR PARK,ELECTRONIC PARKING,WHOLE DAY,NO,YES,0.0,9.99,N,1.334892647114508,103.739311091351
362,C,116,J57,2023-02-27T09:37:47,BLK 131/134 JURONG GATEWAY ROAD,17516.667,35130.0187,SURFACE CAR PARK,ELECTRONIC PARKING,WHOLE DAY,NO,YES,0.0,9.99,N,1.3339761172627207,103.73911988019672
13,C,0,J57L,2023-02-27T09:37:47,BLK 131 JURONG GATEWAY ROAD,17598.8143,35184.3604,SURFACE CAR PARK,ELECTRONIC PARKING,NO,NO,NO,0.0,9.99,N,1.334467592004369,103.7398580011145
129,C,87,J33,2023-02-27T09:37:10,BLK 518/520 JURONG WEST STREET 52,15152.9335,36434.7257,SURFACE CAR PARK,ELECTRONIC PARKING,WHOLE DAY,SUN & PH FR 7AM-10.30PM,YES,0.0,4.5,N,1.3457744896852935,103.71787986661185
123,C,93,J34,2023-02-27T09:37:05,BLK 513/514 JURONG WEST STREET 52,15398.4307,36577.707,SURFACE CAR PARK,ELECTRONIC PARKING,WHOLE DAY,SUN & PH FR 7AM-10.30PM,YES,0.0,4.5,N,1.3470676632759224,103.72008574579381
679,C,678,BL8,2023-02-27T09:35:08,BLK 221 BOON LAY PLACE,14653.3598,36396.1197,SURFACE CAR PARK,ELECTRONIC PARKING,WHOLE DAY,SUN & PH FR 7AM-10.30PM,YES,0.0,4.5,N,1.3454251335374876,103.71339091636773
482,C,294,J36,2023-02-27T09:38:13,BLK 543/551 JURONG WEST STREET 42,14883.267,37142.1353,SURFACE CAR PARK,ELECTRONIC PARKING,WHOLE DAY,SUN & PH FR 7AM-10.30PM,YES,0.0,9.99,N,1.3521719203242173,103.7154564445066
226,C,93,J54,2023-02-27T09:37:39,BLK 492-496 JURONG WEST STREET 41,15890.8105,36893.8086,SURFACE CAR PARK,ELECTRONIC PARKING,WHOLE DAY,SUN & PH FR 7AM-10.30PM,YES,0.0,4.5,N,1.3499265714395001,103.72450994802132
141,C,102,J55,2023-02-27T09:38:16,BLK 497-498 JURONG WEST STREET 41,15866.4258,36751.25,SURFACE CAR PARK,ELECTRONIC PARKING,WHOLE DAY,SUN & PH FR 7AM-10.30PM,YES,0.0,4.5,N,1.348637314625562,103.72429089393327
190,C,124,J43,2023-02-27T09:37:42,BLK 474-477 JURONG WEST STREET 41,15975.2217,36672.4648,SURFACE CAR PARK,ELECTRONIC PARKING,WHOLE DAY,SUN & PH FR 7AM-10.30PM,YES,0.0,4.5,N,1.3479248544356457,103.72526852277497
63,C,10,J46,2023-02-27T09:37:24,BLK 501/504 JURONG WEST STREET 51,15284.1084,36874.7695,SURFACE CAR PARK,ELECTRONIC PARKING,WHOLE DAY,NO,YES,0.0,9.99,N,1.3497541372772135,103.71905836585934
239,C,110,KB1,2023-02-27T09:37:29,BLK 61-62/68 GEYLANG BAHRU ROAD,31959.8887,33979.5898,SURFACE CAR PARK,ELECTRONIC PARKING,NO,SUN & PH FR 7AM-10.30PM,YES,0.0,4.5,N,1.3235736038960753,103.86890029223395
677,C,453,GBM,2023-02-27T09:37:29,BLK 60A GEYLANG BAHRU,31930.2182,33890.9953,MULTI-STOREY CAR PARK,ELECTRONIC PARKING,WHOLE DAY,SUN & PH FR 7AM-10.30PM,YES,12.0,2.15,N,1.3227723905559787,103.86863367566639
187,C,92,SE14,2023-02-27T09:37:44,BLK 231/237 SERANGOON AVENUE 3,32080.9673,37405.0495,SURFACE CAR PARK,ELECTRONIC PARKING,WHOLE DAY,SUN & PH FR 7AM-10.30PM,YES,0.0,0.0,N,1.354552223660293,103.86998870808891
591,C,451,SE50,2023-02-27T09:37:44,BLK 238A SERANGOON AVENUE 2,31927.5751,37333.0762,MULTI-STOREY CAR PARK,ELECTRONIC PARKING,WHOLE DAY,SUN & PH FR 7AM-10.30PM,YES,12.0,2.15,N,1.35390134346339,103.8686103707852
206,C,100,J40,2023-02-27T09:37:26,BLK 462-467 JURONG WEST STREET 41,15709.2368,36905.2238,SURFACE CAR PARK,ELECTRONIC PARKING,WHOLE DAY,SUN & PH FR 7AM-10.30PM,YES,0.0,4.5,N,1.350029732229149,103.72287839228024
268,C,178,JM1,2023-02-27T09:37:39,BLK 517B JURONG WEST STREET 52,15461.2578,36356.8719,MULTI-STOREY CAR PARK,ELECTRONIC PARKING,WHOLE DAY,SUN & PH FR 7AM-10.30PM,YES,10.0,2.15,N,1.3450705393275175,103.72065037678253
199,C,129,J32,2023-02-27T09:37:39,BLK 515/517 JURONG WEST STREET 52,15441.7334,36438.2695,SURFACE CAR PARK,ELECTRONIC PARKING,WHOLE DAY,SUN & PH FR 7AM-10.30PM,YES,0.0,4.5,N,1.3458066607061008,103.72047490460963
368,C,178,A11,2023-02-27T09:37:40,BLK 223/226/226A-226D ANG MO KIO ST 22,28541.14,38785.36,SURFACE CAR PARK,ELECTRONIC PARKING,WHOLE DAY,SUN & PH FR 7AM-10.30PM,YES,0.0,4.5,N,1.3670355338571103,103.8381810968514
391,C,201,TR1,2023-02-27T09:37:43,BLK 102/107 TOWNER ROAD,31092.8691,33554.6172,SURFACE CAR PARK,ELECTRONIC PARKING,7AM-10.30PM,SUN & PH FR 7AM-10.30PM,NO,0.0,4.5,N,1.3197304025188688,103.8611096164492
342,C,255,JBM,2023-02-27T09:37:53,BLK 134A JALAN BUKIT MERAH,27317.7804,29079.9207,MULTI-STOREY CAR PARK,ELECTRONIC PARKING,WHOLE DAY,SUN & PH FR 7AM-10.30PM,YES,11.0,1.9,N,1.2792629708630556,103.82718857877008
213,C,164,TE2,2023-02-27T09:37:39,BLK 105-107 JALAN BUKIT MERAH,27083.1099,29159.4607,SURFACE CAR PARK,ELECTRONIC PARKING,NO,SUN & PH FR 7AM-10.30PM,YES,0.0,4.5,N,1.2799822967820151,103.82507997347741
93,C,30,CR31,2023-02-27T09:38:06,BLK 632/633/635 VEERASAMY ROAD,30379.3535,32063.9883,SURFACE CAR PARK,ELECTRONIC PARKING,7AM-10.30PM,NO,NO,0.0,4.5,N,1.3062497454836364,103.8546981936133
368,C,233,J1,2023-02-27T09:37:46,BLK 101/107 JURONG EAST ST 13,17402.9823,35401.3306,SURFACE CAR PARK,ELECTRONIC PARKING,WHOLE DAY,NO,YES,0.0,5.4,N,1.3364297229134343,103.73809826514399
200,C,136,J2,2023-02-27T09:37:57,BLK 108/110 JURONG EAST ST 13,17255.3159,35642.1729,SURFACE CAR PARK,ELECTRONIC PARKING,WHOLE DAY,SUN & PH FR 7AM-10.30PM,YES,0.0,9.99,N,1.3386077600004411,103.73677131352437
308,C,224,J3,2023-02-27T09:37:03,BLK 111/116 JURONG EAST ST 13,17112.1421,35740.2671,SURFACE CAR PARK,ELECTRONIC PARKING,WHOLE DAY,SUN & PH FR 7AM-10.30PM,YES,0.0,4.5,N,1.3394948365194097,103.73548477934001
1163,C,584,T37,2023-02-22T10:47:19,"BLK 801, 820, 897/898 TAMPINES AVE 4/STREET 81",39523.5039,36609.7734,SURFACE CAR PARK,ELECTRONIC PARKING,WHOLE DAY,SUN & PH FR 7AM-10.30PM,YES,0.0,4.5,N,1.3473580948340884,103.93686435633276
149,C,73,KB3,2023-02-27T09:37:23,BLK 64/65/67 KALLANG BAHRU,32043.8984,33676.0,SURFACE CAR PARK,ELECTRONIC PARKING,WHOLE DAY,SUN & PH FR 7AM-10.30PM,YES,0.0,4.5,N,1.3208280346346697,103.86965512421548
239,C,174,KBM,2023-02-27T09:37:01,BLK 65A KALLANG BAHRU,31984.8599,33610.8985,MULTI-STOREY CAR PARK,ELECTRONIC PARKING,WHOLE DAY,SUN & PH FR 7AM-10.30PM,YES,12.0,2.15,N,1.3202392875401796,103.86912462402037
172,C,67,J4,2023-02-27T09:37:35,BLK 201/206 JURONG EAST ST 21,17826.3697,35522.9964,SURFACE CAR PARK,ELECTRONIC PARKING,WHOLE DAY,NO,YES,0.0,4.5,N,1.3375301693185266,103.74190260101675
388,C,302,TGM1,2023-02-27T09:37:46,BLK 63A TEBAN GARDENS RD,17493.7022,33714.2794,MULTI-STOREY CAR PARK,ELECTRONIC PARKING,WHOLE DAY,SUN & PH FR 7AM-10.30PM,YES,12.0,2.15,N,1.3211726817146188,103.73891401431447
208,C,127,TG3,2023-02-27T09:37:45,BLK 30/31/46/48 TEBAN GARDENS,17500.7539,33654.8242,SURFACE CAR PARK,ELECTRONIC PARKING,WHOLE DAY,SUN & PH FR 7AM-10.30PM,YES,0.0,3.39,N,1.320634993058801,103.73897739773975
176,C,105,TG6,2023-02-27T09:37:45,"BLK 32, 39/41 TEBAN GARDENS",17736.171,33786.4157,SURFACE CAR PARK,ELECTRONIC PARKING,WHOLE DAY,SUN & PH FR 7AM-10.30PM,YES,0.0,3.8,N,1.3218251384145,103.7410926969463
362,C,130,TG7,2023-02-27T09:37:45,BLK 33/38/43/45 TEBAN GARDENS,17869.5236,33600.6696,SURFACE CAR PARK,ELECTRONIC PARKING,WHOLE DAY,SUN & PH FR 7AM-10.30PM,YES,0.0,3.5,N,1.3201453629777007,103.74229100005539
54,C,24,CR30,2023-02-27T09:37:48,BLK 639/640 ROWELL COURT,30406.377,32213.3125,SURFACE CAR PARK,ELECTRONIC PARKING,7AM-10.30PM,NO,NO,0.0,4.5,N,1.307600178729994,103.85494102404743
151,C,64,RCM,2023-02-27T09:37:48,BLK 638 VEERASAMY ROAD,30452.1642,32170.1999,MULTI-STOREY CAR PARK,ELECTRONIC PARKING,WHOLE DAY,SUN & PH FR 7AM-10.30PM,YES,6.0,2.0,N,1.3072102800045187,103.85535244045683
286,C,95,EPM,2023-02-27T09:37:45,BLK 6A EVERTON ROAD,28622.0835,28739.5121,MULTI-STOREY CAR PARK,ELECTRONIC PARKING,WHOLE DAY,SUN & PH FR 7AM-10.30PM,YES,9.0,2.15,N,1.2761844360827435,103.83890822772904
553,C,386,TGM3,2023-02-27T09:37:44,BLK 22A TEBAN GARDENS RD,17539.8244,33945.2298,MULTI-STOREY CAR PARK,ELECTRONIC PARKING,WHOLE DAY,SUN & PH FR 7AM-10.30PM,YES,3.0,2.15,N,1.323261328455708,103.73932836739344
58,C,0,KB14,2023-02-27T09:37:55,BLK 66/71 KALLANG BAHRU,32089.1664,33646.109,SURFACE CAR PARK,ELECTRONIC PARKING,WHOLE DAY,SUN & PH FR 7AM-10.30PM,YES,0.0,4.5,N,1.3205577050364643,103.87006187688044
350,C,234,J41,2023-02-27T09:36:57,BLK 468-473 JURONG WEST STREET 41,15615.0684,36712.7969,SURFACE CAR PARK,ELECTRONIC PARKING,WHOLE DAY,SUN & PH FR 7AM-10.30PM,YES,0.0,4.5,N,1.348289456244436,103.72203231052204
144,C,80,JBM2,2023-02-27T09:37:39,BLK 113A JLN BUKIT MERAH,27105.3295,29188.4439,MULTI-STOREY CAR PARK,ELECTRONIC PARKING,WHOLE DAY,SUN & PH FR 7AM-10.30PM,YES,10.0,2.15,N,1.2802444113188276,103.8252796242052
250,C,142,J39,2023-02-27T09:37:29,BLK 456-461 JURONG WEST STREET 41,15538.8643,36919.3594,SURFACE CAR PARK,ELECTRONIC PARKING,WHOLE DAY,SUN & PH FR 7AM-10.30PM,YES,0.0,4.5,N,1.3501574988556229,103.72134748501942
626,C,397,J52,2023-02-27T09:37:28,BLK 423/440 JURONG WEST AVE 1/ST 42,15900.1895,37060.7578,SURFACE CAR PARK,ELECTRONIC PARKING,WHOLE DAY,SUN & PH FR 7AM-10.30PM,YES,0.0,9.99,N,1.3514364016790459,103.72459415698256
655,C,486,J51,2023-02-27T09:37:10,BLK 409/416 JURONG WEST STREET 42,15904.1348,37295.1406,SURFACE CAR PARK,ELECTRONIC PARKING,WHOLE DAY,SUN & PH FR 7AM-10.30PM,YES,0.0,9.99,N,1.3535560740797037,103.72462951363374
215,C,161,J53,2023-02-27T09:38:05,BLK 417/422 JURONG WEST STREET 42,16137.4785,36983.8477,SURFACE CAR PARK,ELECTRONIC PARKING,WHOLE DAY,SUN & PH FR 7AM-10.30PM,YES,0.0,4.5,N,1.3507409504176193,103.72672637598922
881,C,551,T19,2023-02-27T09:37:01,BLK 210/230 TAMPINES STREET 23,41357.6797,37403.3437,SURFACE CAR PARK,ELECTRONIC PARKING,WHOLE DAY,SUN & PH FR 7AM-10.30PM,YES,0.0,4.5,N,1.3545340856241221,103.95334588469461
922,C,743,J49,2023-02-27T09:37:37,BLK 552/559 JURONG WEST STREET 42,15272.0103,37284.0817,SURFACE CAR PARK,ELECTRONIC PARKING,WHOLE DAY,SUN & PH FR 7AM-10.30PM,YES,0.0,9.99,N,1.3534557986298217,103.71894948384072
291,C,174,J27,2023-02-27T09:37:45,BLK 521/524 JURONG WEST STREET 52,15018.2256,36557.7852,SURFACE CAR PARK,ELECTRONIC PARKING,WHOLE DAY,SUN & PH FR 7AM-10.30PM,YES,0.0,4.5,N,1.3468873357936137,103.71666938291034
43,C,2,TB14,2023-02-27T09:37:57,BLK 113/114 DEPOT ROAD,25109.3906,29363.2539,SURFACE CAR PARK,ELECTRONIC PARKING,WHOLE DAY,SUN & PH FR 7AM-10.30PM,YES,0.0,4.5,N,1.2818252116961109,103.80734533801913
501,C,201,U19,2023-02-27T09:37:54,BLK 266/284 BUKIT BATOK EAST AVE 3/4,19653.7625,36736.2392,SURFACE CAR PARK,ELECTRONIC PARKING,WHOLE DAY,SUN & PH FR 1PM-10.30PM,YES,0.0,4.5,N,1.3485028571990103,103.75832244183866
95,C,7,U6,2023-02-27T09:37:48,BLK 150/158 BUKIT BATOK STREET 11,18071.3516,36683.9531,SURFACE CAR PARK,ELECTRONIC PARKING,WHOLE DAY,SUN & PH FR 1PM-10.30PM,YES,0.0,9.99,N,1.3480295181730968,103.74410352317281
159,C,83,U45,2023-02-27T09:37:54,BLK 285A BUKIT BATOK EAST AVE 3,19606.6244,36561.0495,MULTI-STOREY CAR PARK,ELECTRONIC PARKING,7AM-7PM,NO,NO,2.0,2.0,N,1.3469184920371304,103.75789892567173
175,C,135,BBM7,2023-02-27T09:37:56,BLK 154A BUKIT BATOK WEST AVE 8,18025.9428,36609.4062,MULTI-STOREY CAR PARK,ELECTRONIC PARKING,WHOLE DAY,SUN & PH FR 7AM-10.30PM,YES,8.0,2.0,N,1.3473553282589252,103.74369552196029
459,C,211,BE12,2023-02-27T09:37:33,BLK 187-197 BISHAN STREET 13,29963.6285,36903.1662,SURFACE CAR PARK,ELECTRONIC PARKING,WHOLE DAY,NO,YES,0.0,4.5,N,1.3500135843193575,103.850963018476
461,C,240,HG41,2023-02-27T09:36:54,BLK 633-642 & 647-648 HOUGANG AVENUE 8,33122.7539,39254.3111,SURFACE CAR PARK,ELECTRONIC PARKING,WHOLE DAY,SUN & PH FR 7AM-10.30PM,YES,0.0,4.5,N,1.3712761200039432,103.8793501497236
487,C,325,HG43,2023-02-27T09:36:52,BLK 668-680 HOUGANG AVENUE 8,33674.0721,39346.8732,SURFACE CAR PARK,ELECTRONIC PARKING,WHOLE DAY,SUN & PH FR 7AM-10.30PM,YES,0.0,9.99,N,1.3721131172452121,103.88430415056773
257,C,147,MN1,2023-02-27T09:37:35,BLKS 108/112 MCNAIR ROAD,30880.3705,33808.8344,SURFACE CAR PARK,ELECTRONIC PARKING,WHOLE DAY,SUN & PH FR 7AM-10.30PM,YES,0.0,3.5,N,1.3220294734974907,103.8592002299241
355,C,243,MNRM,2023-02-27T09:37:54,BLK 108A MCNAIR ROAD,30906.0026,33644.1601,MULTI-STOREY CAR PARK,ELECTRONIC PARKING,WHOLE DAY,SUN & PH FR 7AM-10.30PM,YES,12.0,2.15,N,1.3205402150734071,103.85943053232883
303,C,190,MN2,2023-02-27T09:37:30,BLKS 119/124 MCNAIR ROAD,30565.2223,33368.7671,SURFACE CAR PARK,ELECTRONIC PARKING,WHOLE DAY,SUN & PH FR 7AM-10.30PM,YES,0.0,4.5,N,1.3180496887521327,103.85636842037391
459,C,236,C7,2023-02-27T09:37:41,BLK 349-355 CLEMENTI AVE 2,21037.2754,33018.7828,SURFACE CAR PARK,ELECTRONIC PARKING,WHOLE DAY,SUN & PH FR 7AM-10.30PM,YES,0.0,4.5,N,1.3148838722797977,103.77075500850243
66,C,14,C17,2023-02-27T09:31:01,"BLK 442-444,442A CLEMENTI AVE 3",20273.9935,32905.3373,SURFACE CAR PARK,ELECTRONIC PARKING,WHOLE DAY,NO,YES,0.0,0.0,N,1.313857729499257,103.76389656958338
550,C,438,C20M,2023-02-27T09:37:59,BLK 462A CLEMENTI AVENUE 3,20469.2131,32645.0967,MULTI-STOREY CAR PARK,ELECTRONIC PARKING,WHOLE DAY,SUN & PH FR 7AM-10.30PM,YES,18.0,2.15,N,1.3115042554415306,103.76565077719528
202,C,47,T41,2023-02-27T09:36:48,BLK 821/829 TAMPINES STREET 81,39350.702,36706.421,SURFACE CAR PARK,ELECTRONIC PARKING,WHOLE DAY,SUN & PH FR 7AM-10.30PM,YES,0.0,4.5,N,1.3482322058800837,103.93531166289078
86,C,0,T42,2023-02-27T09:36:47,BLK 824/827 TAMPINES STREET 81,39062.7271,36823.2135,SURFACE CAR PARK,ELECTRONIC PARKING,WHOLE DAY,NO,YES,0.0,4.5,N,1.349288541806568,103.93272407564717
261,C,194,TM42,2023-02-27T09:36:57,BLK 823A TAMPINES STREET 81,39149.9105,36784.3426,MULTI-STOREY CAR PARK,ELECTRONIC PARKING,WHOLE DAY,SUN & PH FR 7AM-10.30PM,YES,8.0,2.15,N,1.3489369754158549,103.93350745764565
745,C,468,J48,2023-02-27T09:37:40,BLK 441/455 JURONG WEST AVE 1/ST 42,15219.7479,37142.2128,SURFACE CAR PARK,ELECTRONIC PARKING,WHOLE DAY,SUN & PH FR 7AM-10.30PM,YES,0.0,4.5,N,1.3521727670439512,103.71847993384819
57,C,0,BH1,2023-02-27T09:37:22,BLK 1 THOMSON ROAD,29017.3398,34136.332,SURFACE CAR PARK,ELECTRONIC PARKING,WHOLE DAY,SUN & PH FR 7AM-10.30PM,YES,0.0,0.0,N,1.3249913646328675,103.8424599258254
47,C,13,BH2,2023-02-27T09:37:40,BLK 2 BALESTIER ROAD,29050.8796,34252.9453,SURFACE CAR PARK,ELECTRONIC PARKING,WHOLE DAY,SUN & PH FR 7AM-10.30PM,YES,0.0,0.0,N,1.3260459729073188,103.842761303002
172,C,129,BKE7,2023-02-27T09:35:35,BLK 678 PERUMAL ROAD,30448.766,32767.6002,MULTI-STOREY CAR PARK,ELECTRONIC PARKING,WHOLE DAY,SUN & PH FR 7AM-10.30PM,YES,11.0,1.9,N,1.3126129574907244,103.85532195310934
152,C,65,BR5,2023-02-27T09:37:47,BLK 74/75 WHAMPOA DRIVE,30768.0099,34127.2333,SURFACE CAR PARK,ELECTRONIC PARKING,WHOLE DAY,SUN & PH FR 7AM-10.30PM,YES,0.0,2.9,N,1.3249089706442563,103.85819063929895
406,C,292,BRM3,2023-02-27T09:37:25,BLK 98A WHAMPOA DRIVE,30374.6768,33753.3566,MULTI-STOREY CAR PARK,ELECTRONIC PARKING,WHOLE DAY,SUN & PH FR 7AM-10.30PM,YES,7.0,2.0,N,1.3215277953752567,103.85465630079332
176,C,92,BRM4,2023-02-27T09:37:53,BLK 85A WHAMPOA DRIVE,30532.4552,33886.3275,MULTI-STOREY CAR PARK,ELECTRONIC PARKING,WHOLE DAY,SUN & PH FR 7AM-10.30PM,YES,2.0,2.1,N,1.322730324429887,103.85607403368216
124,C,71,M16,2023-02-27T09:38:07,BLK 37 CIRCUIT ROAD,33937.7242,34516.7499,SURFACE CAR PARK,ELECTRONIC PARKING,WHOLE DAY,SUN & PH FR 7AM-10.30PM,YES,0.0,4.5,N,1.3284311670898423,103.88667229933561
36,C,7,M20,2023-02-27T09:38:07,BLK 65 & 80 CIRCUIT RD,34003.7503,34423.7894,SURFACE CAR PARK,ELECTRONIC PARKING,7AM-10.30PM,SUN & PH FR 7AM-10.30PM,NO,0.0,0.0,N,1.3275904526526723,103.88726556178919
91,C,61,M35,2023-02-27T09:37:05,BLK 41 TO 42 CIRCUIT ROAD,33853.4512,34389.6627,SURFACE CAR PARK,ELECTRONIC PARKING,7AM-7PM,NO,NO,0.0,0.0,N,1.3272818522606584,103.8859150359738
17,C,1,M36,2023-02-27T09:36:08,BLK 43 CIRCUIT ROAD,33802.3661,34325.7124,SURFACE CAR PARK,ELECTRONIC PARKING,7AM-7PM,NO,NO,0.0,0.0,N,1.3267035184005465,103.88545599646352
35,C,19,M37,2023-02-27T09:37:51,BLK 38 TO 40 CIRCUIT ROAD,33818.9546,34433.4006,SURFACE CAR PARK,ELECTRONIC PARKING,7AM-7PM,NO,NO,0.0,0.0,N,1.327677408792968,103.88560507356979
39,C,15,M38,2023-02-27T09:37:25,BLK 63 TO 64 CIRCUIT ROAD,34027.245,34375.424,SURFACE CAR PARK,ELECTRONIC PARKING,7AM-10.30PM,NO,NO,0.0,0.0,N,1.3271530486482286,103.88747666495252
222,C,150,MM3,2023-02-27T09:37:14,BLK 66A CIRCUIT ROAD,34087.5573,34277.3707,MULTI-STOREY CAR PARK,ELECTRONIC PARKING,WHOLE DAY,SUN & PH FR 7AM-10.30PM,YES,11.0,2.15,N,1.3262662777141818,103.88801858425032
220,C,57,MP12,2023-02-27T09:37:55,BLK 72 TO 76 MARINE DRIVE,36262.5434,31721.8625,SURFACE CAR PARK,ELECTRONIC PARKING,WHOLE DAY,NO,YES,0.0,4.5,N,1.3031546710952744,103.90756132229356
396,C,235,MP13,2023-02-27T09:37:58,BLK 78 & 79 MARINE DRIVE,36406.0703,31559.5098,SURFACE CAR PARK,ELECTRONIC PARKING,WHOLE DAY,NO,YES,0.0,0.0,N,1.301686373156581,103.90885093288705
522,C,354,MP1M,2023-02-27T09:37:58,BLK 65A MARINE DRIVE,36524.3349,31701.1168,MULTI-STOREY CAR PARK,ELECTRONIC PARKING,WHOLE DAY,NO,YES,5.0,2.0,N,1.3029669835986253,103.90991363196889
257,C,115,PP1,2023-02-27T09:37:53,BLK 101 TO 109 POTONG PASIR AVENUE 1,31994.78,35133.03,SURFACE CAR PARK,ELECTRONIC PARKING,WHOLE DAY,SUN & PH FR 7AM-10.30PM,YES,0.0,4.5,N,1.334004902068074,103.86921395965486
192,C,130,PP2,2023-02-27T09:37:37,BLK 143 TO 145 POTONG PASIR AVENUES 2/3,31643.1687,34986.5402,SURFACE CAR PARK,ELECTRONIC PARKING,WHOLE DAY,SUN & PH FR 7AM-10.30PM,YES,0.0,0.0,N,1.3326801447688794,103.86605451410966
345,C,177,PP3,2023-02-27T09:37:19,BLK 134 TO 142 POTONG PASIR AVENUE 3,31619.7981,35088.4721,SURFACE CAR PARK,ELECTRONIC PARKING,NO,SUN & PH FR 7AM-10.30PM,YES,0.0,0.0,N,1.3336019833981587,103.86584452814058
166,C,60,PP4,2023-02-27T09:37:22,BLK 121 TO 133 POTONG PASIR AVENUE 1,31650.3687,35213.5248,SURFACE CAR PARK,ELECTRONIC PARKING,WHOLE DAY,SUN & PH FR 7AM-10.30PM,YES,0.0,0.0,N,1.3347329118377271,103.86611923734695
346,C,184,PP5,2023-02-27T09:37:46,BLK 113 TO 120 POTONG PASIR AVENUE 1,31328.03,35388.25,SURFACE CAR PARK,ELECTRONIC PARKING,NO,SUN & PH FR 7AM-10.30PM,YES,0.0,0.0,N,1.3363131015185308,103.86322285845003
83,C,61,TP10,2023-02-27T09:37:13,BLK 68 LORONG 5 TOA PAYOH,30256.17,35233.77,SURFACE CAR PARK,ELECTRONIC PARKING,WHOLE DAY,SUN & PH FR 7AM-10.30PM,YES,0.0,2.15,N,1.3349161381898234,103.85359156385053
53,C,30,TP14,2023-02-27T09:36:25,BLK 63/64 LORONG 5 TOA PAYOH,30124.42,35341.3,SURFACE CAR PARK,ELECTRONIC PARKING,WHOLE DAY,SUN & PH FR 7AM-10.30PM,YES,0.0,4.5,N,1.3358886108582282,103.85240772188124
668,C,467,TP16,2023-02-27T09:37:40,BLK 175/183 TO 185 TOA PAYOH TOWN CENTRE,29669.0734,35049.0624,SURFACE CAR PARK,ELECTRONIC PARKING,WHOLE DAY,SUN & PH FR 7AM-10.30PM,YES,0.0,9.99,N,1.333245746223491,103.84831615333499
119,C,45,TP17,2023-02-27T09:37:23,BLK 177 TO 179 TOA PAYOH TOWN CENTRE,29699.9143,35107.3661,SURFACE CAR PARK,ELECTRONIC PARKING,WHOLE DAY,SUN & PH FR 7AM-10.30PM,YES,0.0,4.4,N,1.3337730224911744,103.84859327961253
383,C,267,TP18,2023-02-27T09:37:29,BLK 186/191 TO 193 TOA PAYOH TOWN CENTRE,29939.32,34976.48,SURFACE CAR PARK,ELECTRONIC PARKING,WHOLE DAY,SUN & PH FR 7AM-10.30PM,YES,0.0,4.5,N,1.3325893206738841,103.85074446814292
85,C,20,TP2,2023-02-27T09:38:04,BLK 85/A/B/C LORONG 4 TOA PAYOH,29660.7631,35373.4764,SURFACE CAR PARK,ELECTRONIC PARKING,WHOLE DAY,SUN & PH FR 7AM-10.30PM,YES,0.0,4.5,N,1.3361796317904386,103.84824149822951
116,C,87,TPMG,2023-02-27T09:38:06,BLK 128A LORONG 1 TOA PAYOH,29196.869,35602.2984,MULTI-STOREY CAR PARK,ELECTRONIC PARKING,WHOLE DAY,SUN & PH FR 7AM-10.30PM,YES,5.0,2.15,N,1.3382490386578767,103.84407314986876
250,C,109,TP36,2023-02-27T09:36:59,BLK 43 TO 48 LORONG 5/6 TOA PAYOH,30278.0957,35382.7109,SURFACE CAR PARK,ELECTRONIC PARKING,7AM-10.30PM,SUN & PH FR 7AM-10.30PM,NO,0.0,4.5,N,1.3362631051523606,103.85378859000134
343,C,215,TPM4,2023-02-27T09:38:08,BLK 81C LORONG 4 TOA PAYOH,29783.6897,35326.4304,MULTI-STOREY CAR PARK,ELECTRONIC PARKING,WHOLE DAY,SUN & PH FR 7AM-10.30PM,YES,10.0,2.0,N,1.3357541574703302,103.84934606221009
342,C,254,TPM5,2023-02-27T09:38:08,BLK 84C LORONG 2 TOA PAYOH,29560.4287,35333.5642,MULTI-STOREY CAR PARK,ELECTRONIC PARKING,WHOLE DAY,SUN & PH FR 7AM-10.30PM,YES,10.0,2.0,N,1.3358186853562588,103.84733993345499
358,C,231,TPM6,2023-02-27T09:36:59,BLK 35A LORONG 5 TOA PAYOH,30371.0062,35230.8425,MULTI-STOREY CAR PARK,ELECTRONIC PARKING,WHOLE DAY,SUN & PH FR 7AM-10.30PM,YES,10.0,2.15,N,1.3348896541471698,103.85462343286822
257,C,109,TP27,2023-02-27T09:38:06,BLK 125/126/131 LORONG 2 TOA PAYOH,29329.7942,35524.3536,SURFACE CAR PARK,ELECTRONIC PARKING,WHOLE DAY,SUN & PH FR 7AM-10.30PM,YES,0.0,4.5,N,1.337544127996719,103.84526755743322
815,C,569,TPMN,2023-02-27T09:37:50,BLK 78B TOA PAYOH CENTRAL,29698.2634,35231.2092,MULTI-STOREY CAR PARK,ELECTRONIC PARKING,WHOLE DAY,NO,YES,7.0,2.15,N,1.334893015641099,103.84857845222868
808,C,483,TPMP,2023-02-27T09:37:56,BLK 138 LORONG 1A TOA PAYOH,29277.9112,35429.2632,MULTI-STOREY CAR PARK,ELECTRONIC PARKING,WHOLE DAY,NO,YES,13.0,2.15,N,1.336684166399769,103.84480135435739
75,C,42,WDB1,2023-02-27T09:37:29,BLK 104 WHAMPOA DRIVE,30217.526,33669.5658,BASEMENT CAR PARK,ELECTRONIC PARKING,7AM-10.30PM,NO,NO,1.0,2.15,Y,1.3207700328410228,103.8532442121171
823,C,498,Y23,2023-02-27T09:37:25,BLK 775-794 YISHUN RING RD/AVENUE 2,27862.1152,44818.0937,SURFACE CAR PARK,ELECTRONIC PARKING,WHOLE DAY,SUN & PH FR 7AM-10.30PM,YES,0.0,4.5,N,1.4215934162337678,103.83207955944775
181,C,97,Y24,2023-02-27T09:37:25,BLK 795-799 YISHUN RING ROAD,27999.8887,44541.1562,SURFACE CAR PARK,ELECTRONIC PARKING,WHOLE DAY,SUN & PH FR 7AM-10.30PM,YES,0.0,0.0,N,1.4190888938075543,103.83331757837162
45,C,5,Y56,2023-02-27T09:37:46,"BLK 926/932,934/935 YISHUN CENTRAL 1",28383.2891,45244.5078,SURFACE CAR PARK,ELECTRONIC PARKING,7AM-10.30PM,NO,NO,0.0,2.5,N,1.4254497490743487,103.83676278174171
406,C,314,BBM1,2023-02-27T09:37:22,BLK 188A BUKIT BATOK WEST AVE 6,18213.6562,36507.8169,MULTI-STOREY CAR PARK,ELECTRONIC PARKING,WHOLE DAY,SUN & PH FR 7AM-10.30PM,YES,10.0,2.0,N,1.3464366536863828,103.74538227425053
329,C,215,BBM8,2023-02-27T09:37:46,BLK 622A BUKIT BATOK CENTRAL,18561.8095,36898.4253,MULTI-STOREY CAR PARK,ELECTRONIC PARKING,WHOLE DAY,NO,YES,6.0,2.15,N,1.3499692848447977,103.74851052070392
310,C,200,BJ10,2023-02-27T09:36:49,BLK 234-241 BUKIT PANJANG RING ROAD,21026.3461,40101.7077,SURFACE CAR PARK,ELECTRONIC PARKING,7AM-10.30PM,SUN & PH FR 7AM-10.30PM,NO,0.0,4.5,N,1.378939286630854,103.77065516676899
100,C,60,BJ11,2023-02-27T09:34:37,BLK 242-245 BUKIT PANJANG RING ROAD,21162.6537,40303.4372,SURFACE CAR PARK,ELECTRONIC PARKING,7AM-10.30PM,SUN & PH FR 7AM-10.30PM,NO,0.0,0.0,N,1.380763687110141,103.77187994356355
550,C,361,BJ12,2023-02-27T09:37:58,BLK 246-255 BANGKIT ROAD,21452.9618,40246.9897,SURFACE CAR PARK,ELECTRONIC PARKING,7AM-10.30PM,SUN & PH FR 7AM-10.30PM,NO,0.0,0.0,N,1.3802532628105784,103.77448858908443
172,C,114,BJ17,2023-02-27T09:37:22,BLK 401A FAJAR ROAD,20836.1138,40357.2456,MULTI-STOREY CAR PARK,ELECTRONIC PARKING,WHOLE DAY,SUN & PH FR 7AM-10.30PM,YES,5.0,1.9,N,1.3812502325627354,103.76894572813386
324,C,241,BJ18,2023-02-27T09:37:22,BLK 401-408 FAJAR ROAD,20743.2768,40326.2581,SURFACE CAR PARK,ELECTRONIC PARKING,WHOLE DAY,SUN & PH FR 7AM-10.30PM,YES,0.0,5.4,N,1.3809699699980742,103.76811152657737
669,C,667,BJ28,2023-02-27T09:30:44,BLK 170A LOMPANG ROAD,20457.7599,40100.1252,MULTI-STOREY CAR PARK,ELECTRONIC PARKING,WHOLE DAY,NO,YES,12.0,2.15,N,1.378924834192692,103.76554600407277
1054,C,628,BJ3,2023-02-27T09:37:47,BLK 101/129 GANGSA ROAD/PENDING ROAD,20884.1354,39921.5746,SURFACE CAR PARK,ELECTRONIC PARKING,WHOLE DAY,SUN & PH FR 7AM-10.30PM,YES,0.0,5.4,N,1.3773101941380117,103.76937734296435
366,C,293,BJ33,2023-02-27T09:36:49,BLK 234A BUKIT PANJANG RING ROAD,21177.2481,40121.6311,MULTI-STOREY CAR PARK,ELECTRONIC PARKING,WHOLE DAY,SUN & PH FR 7AM-10.30PM,YES,12.0,2.15,N,1.3791195021651246,103.7720111271445
450,C,293,BJ42,2023-02-27T09:37:43,BLK 163A GANGSA ROAD,20317.5802,39878.586,MULTI-STOREY CAR PARK,ELECTRONIC PARKING,WHOLE DAY,SUN & PH FR 7AM-10.30PM,YES,12.0,2.15,N,1.3769212779575655,103.76428644466158
232,C,230,BJ45,2023-02-27T09:36:37,BLK 180A LOMPANG ROAD,20397.9729,40073.9347,MULTI-STOREY CAR PARK,ELECTRONIC PARKING,WHOLE DAY,NO,YES,8.0,2.15,N,1.3786879613964398,103.76500878091232
10,H,0,SK44,2023-02-27T09:34:42,BLK 308 ANCHORVALE ROAD,33905.0798,41268.8098,MULTI-STOREY CAR PARK,ELECTRONIC PARKING,WHOLE DAY,SUN & PH FR 7AM-10.30PM,YES,12.0,2.15,N,1.389494370963902,103.88638030369823
93,C,65,U48,2023-02-27T09:37:25,BLK 350 BUKIT BATOK STREET 32,18590.8011,38166.1707,SURFACE CAR PARK,ELECTRONIC PARKING,WHOLE DAY,NO,YES,0.0,0.0,N,1.3614343194045193,103.7487706304381
101,C,76,U5,2023-02-27T09:38:03,BLK 144/149 BUKIT BATOK WEST AVENUE 6,18135.2799,36917.0123,SURFACE CAR PARK,ELECTRONIC PARKING,WHOLE DAY,SUN & PH FR 1PM-10.30PM,YES,0.0,0.0,N,1.3501372412828894,103.74467788179186
493,C,389,JM14,2023-02-27T09:35:18,BLK 635A JURONG WEST STREET 65,13026.1447,36061.7744,MULTI-STOREY CAR PARK,ELECTRONIC PARKING,WHOLE DAY,SUN & PH FR 7AM-10.30PM,YES,12.0,2.15,N,1.342400674377113,103.69876959218979
468,C,374,JM12,2023-02-27T09:35:25,BLK 624A JURONG WEST STREET 61,12989.0554,35920.273,MULTI-STOREY CAR PARK,ELECTRONIC PARKING,WHOLE DAY,SUN & PH FR 7AM-10.30PM,YES,12.0,2.15,N,1.3411209710444365,103.69843639350871
210,C,103,W39,2023-02-27T09:37:23,BLK 830-836 WOODLANDS STREET 83,23315.9648,46842.418,SURFACE CAR PARK,ELECTRONIC PARKING,7AM-10.30PM,SUN & PH FR 7AM-10.30PM,NO,0.0,4.5,N,1.439900281792777,103.79122797617211
735,C,502,PL67,2023-02-27T09:36:47,BLK 314 PUNGGOL WAY,35143.9937,43367.4988,MULTI-STOREY CAR PARK,ELECTRONIC PARKING,WHOLE DAY,SUN & PH FR 7AM-10.30PM,YES,2.0,2.15,N,1.4084738701672708,103.89751341807985
10,H,0,SK40,2023-02-27T09:34:41,BLK 306 ANCHORVALE LINK,34130.2215,41374.1249,MULTI-STOREY CAR PARK,ELECTRONIC PARKING,WHOLE DAY,SUN & PH FR 7AM-10.30PM,YES,12.0,2.15,N,1.3904467559290814,103.88840339805577
400,C,207,U9,2023-02-27T09:37:40,BLK 169/177 BUKIT BATOK WEST AVENUE 8,17748.6389,36445.3951,SURFACE CAR PARK,ELECTRONIC PARKING,WHOLE DAY,SUN & PH FR 7AM-10.30PM,YES,0.0,4.5,N,1.3458719785511333,103.74120383317253
595,C,341,U26,2023-02-27T09:37:55,BLK 354/357-370 BUKIT BATOK ST 31,18742.24,38064.66,SURFACE CAR PARK,ELECTRONIC PARKING,WHOLE DAY,SUN & PH FR 7AM-10.30PM,YES,0.0,0.0,N,1.3605163414314771,103.75013144078096
625,C,429,U25,2023-02-27T09:38:09,BLK 337-353/355-356 BUKIT BATOK ST 34,18728.7311,38350.9289,SURFACE CAR PARK,ELECTRONIC PARKING,WHOLE DAY,SUN & PH FR 7AM-10.30PM,YES,0.0,0.0,N,1.363105248330535,103.75000996550129
46,C,25,U24T,2023-02-27T09:36:16,BLK 333/334 BUKIT BATOK WEST AVE 4,18441.4863,38506.9696,SURFACE CAR PARK,ELECTRONIC PARKING,WHOLE DAY,SUN & PH FR 1PM-10.30PM,YES,0.0,9.99,N,1.364516331909095,103.74742882883761
364,C,219,U24,2023-02-27T09:36:16,BLK 324/336 BUKIT BATOK STREET 32/33,18465.58,38439.7002,SURFACE CAR PARK,ELECTRONIC PARKING,WHOLE DAY,SUN & PH FR 1PM-10.30PM,YES,0.0,4.5,N,1.3639079799053682,103.74764534848676
713,C,486,U23,2023-02-27T09:37:39,BLK 407-426 BUKIT BATOK WEST AVE 2/4,18234.0951,38341.652,SURFACE CAR PARK,ELECTRONIC PARKING,WHOLE DAY,SUN & PH FR 1PM-10.30PM,YES,0.0,0.0,N,1.363021192573959,103.7455653333897
495,C,334,U22,2023-02-27T09:37:22,BLK 310/323 BUKIT BATOK STREET 32/33,18339.7245,38092.0958,SURFACE CAR PARK,ELECTRONIC PARKING,WHOLE DAY,SUN & PH FR 7AM-10.30PM,YES,0.0,0.0,N,1.3607643325033068,103.74651456484939
313,C,226,U21,2023-02-27T09:37:42,BLK 301/309 BUKIT BATOK STREET 31,18569.9729,37715.1464,SURFACE CAR PARK,ELECTRONIC PARKING,WHOLE DAY,SUN & PH FR 7AM-10.30PM,YES,0.0,5.4,N,1.3573554142331263,103.74858361747685
1109,C,613,U2,2023-02-27T09:37:55,BLK 111/132 BUKIT BATOK WEST AVE 6,18316.8368,36887.7302,SURFACE CAR PARK,ELECTRONIC PARKING,WHOLE DAY,SUN & PH FR 7AM-10.30PM,YES,0.0,9.99,N,1.3498724840033884,103.74630929254876
361,C,229,J45,2023-02-27T09:38:05,BLK 484-491 JURONG WEST AVENUE 1,16144.0439,36789.7031,SURFACE CAR PARK,ELECTRONIC PARKING,WHOLE DAY,SUN & PH FR 7AM-10.30PM,YES,0.0,0.0,N,1.3489851813579015,103.72678544658422
128,C,64,TM25,2023-02-27T09:37:00,BLK 497E TAMPINES STREET 45,41930.7103,37865.65,MULTI-STOREY CAR PARK,ELECTRONIC PARKING,WHOLE DAY,NO,YES,2.0,2.0,N,1.3587147470147305,103.95849513834374
124,C,65,TM26,2023-02-27T09:37:13,BLK 497K TAMPINES STREET 45,42056.4696,37988.6087,MULTI-STOREY CAR PARK,ELECTRONIC PARKING,WHOLE DAY,NO,YES,2.0,2.0,N,1.3598266797869678,103.95962522398689
239,C,200,TM27,2023-02-27T09:36:52,BLK 497L TAMPINES STREET 45,42085.7621,38079.9813,MULTI-STOREY CAR PARK,ELECTRONIC PARKING,WHOLE DAY,SUN & PH FR 7AM-10.30PM,YES,4.0,2.0,N,1.3606530051149364,103.95988847902791
269,C,163,J37,2023-02-27T09:38:05,BLK 537/542 JURONG WEST AVENUE 1,14921.6961,37045.2742,SURFACE CAR PARK,ELECTRONIC PARKING,WHOLE DAY,SUN & PH FR 7AM-10.30PM,YES,0.0,4.5,N,1.3512959616988443,103.71580179588177
60,C,17,BM1,2023-02-27T09:37:50,BLK 28 JALAN BUKIT MERAH,25357.1463,29858.3486,SURFACE CAR PARK,ELECTRONIC PARKING,WHOLE DAY,NO,YES,0.0,0.0,N,1.2863026958403272,103.80957147714548
53,C,0,BM2,2023-02-27T09:37:50,BLK 28 HOY FATT ROAD,25399.6152,29918.9512,SURFACE CAR PARK,ELECTRONIC PARKING,WHOLE DAY,NO,YES,0.0,2.1,N,1.2868507679834955,103.80995307226148
460,C,294,BM26,2023-02-27T09:37:48,BLK 1/3/5 JALAN BUKIT MERAH,25118.4593,29967.6925,SURFACE CAR PARK,ELECTRONIC PARKING,WHOLE DAY,NO,YES,0.0,4.5,N,1.287291542584282,103.80742676873206
220,C,116,BWM,2023-02-27T09:37:49,BLK 2A JLN BUKIT MERAH,25037.7298,29927.4975,MULTI-STOREY CAR PARK,ELECTRONIC PARKING,WHOLE DAY,NO,YES,7.0,2.15,N,1.2869280256342526,103.80670138529204
150,C,45,TBMT,2023-02-27T09:28:39,BLK 80 TELOK BLANGAH ST 31,25059.9661,28475.4537,MULTI-STOREY CAR PARK,ELECTRONIC PARKING,7AM-10.30PM,NO,NO,5.0,2.15,N,1.273796254050209,103.80690132190573
384,C,173,TPM,2023-02-27T09:37:57,BLK 1/6 TANJONG PAGAR MSCP,28999.272,28661.7751,MULTI-STOREY CAR PARK,ELECTRONIC PARKING,WHOLE DAY,SUN & PH FR 7AM-10.30PM,YES,7.0,1.8,N,1.2754814002517159,103.84229740226218
338,C,293,U29,2023-02-27T09:37:51,BLK 376 BUKIT BATOK MSCP,18649.5445,37851.9011,MULTI-STOREY CAR PARK,ELECTRONIC PARKING,WHOLE DAY,SUN & PH FR 7AM-10.30PM,YES,3.0,1.9,N,1.358592198792109,103.74929857711716
20,C,6,U27,2023-02-27T09:37:55,BLK 371-373 BUKIT BATOK ST 31,18846.1378,37962.5676,SURFACE CAR PARK,ELECTRONIC PARKING,WHOLE DAY,SUN & PH FR 7AM-10.30PM,YES,0.0,9.99,N,1.3595930873236555,103.75106506231087
312,C,183,U18,2023-02-27T09:38:03,BLK 254/265 BUKIT BATOK EAST AVE 4,19699.5049,37022.2461,SURFACE CAR PARK,ELECTRONIC PARKING,WHOLE DAY,SUN & PH FR 7AM-10.30PM,YES,0.0,4.5,N,1.3510894123958326,103.758733386708
143,C,102,U30,2023-02-27T09:37:56,BLK 523-525 BUKIT BATOK STREET 52,19027.5388,37666.3629,SURFACE CAR PARK,ELECTRONIC PARKING,WHOLE DAY,SUN & PH FR 7AM-10.30PM,YES,0.0,0.0,N,1.3569143755488289,103.75269515817702
50,H,50,SK48,2023-02-27T09:34:42,BLK 321 ANCHORVALE DRIVE,34475.7019,41347.2977,MULTI-STOREY CAR PARK,ELECTRONIC PARKING,WHOLE DAY,SUN & PH FR 7AM-10.30PM,YES,12.0,2.15,N,1.3902040655569785,103.89150780180584
298,C,110,TE25,2023-02-27T09:37:39,BLK 17/31/141/150 KAMPONG BAHRU ROAD,27718.3359,28870.7891,SURFACE CAR PARK,ELECTRONIC PARKING,7AM-10.30PM,SUN & PH FR 7AM-10.30PM,NO,0.0,4.5,N,1.2773716640930206,103.83078772296444
19,C,0,TE3,2023-02-27T09:37:39,BLK 108/110/112 JALAN BUKIT MERAH,27201.2559,29132.8223,SURFACE CAR PARK,ELECTRONIC PARKING,7AM-10.30PM,SUN & PH FR 7AM-10.30PM,NO,0.0,4.5,N,1.2797413916490008,103.82614156083444
30,C,5,TE4,2023-02-27T09:37:54,BLK 132-138 JALAN BUKIT MERAH,27390.6755,28981.1406,SURFACE CAR PARK,ELECTRONIC PARKING,7AM-10.30PM,SUN & PH FR 7AM-10.30PM,NO,0.0,0.0,N,1.278369639755713,103.82784357064978
15,C,4,U28,2023-02-27T09:37:54,BLK 374-376 BUKIT BATOK ST 31,18790.052,37772.6738,SURFACE CAR PARK,ELECTRONIC PARKING,WHOLE DAY,SUN & PH FR 7AM-10.30PM,YES,0.0,9.99,N,1.357875739924686,103.75056115304274
59,C,10,A15,2023-02-27T09:37:39,BLK 226E-226H ANG MO KIO ST 22,28790.02,38777.85,SURFACE CAR PARK,ELECTRONIC PARKING,WHOLE DAY,SUN & PH FR 7AM-10.30PM,YES,0.0,0.0,N,1.3669676105068438,103.84041745597003
51,C,2,BM28,2023-02-27T09:36:08,"BLK 117, 161 BUKIT MERAH CENTRAL",26052.9053,29603.6488,SURFACE CAR PARK,ELECTRONIC PARKING,7AM-10.30PM,NO,NO,0.0,9.99,N,1.2839993312076001,103.81582316671016
46,C,1,BM30,2023-02-27T09:36:16,BLK 164/165 BUKIT MERAH CENTRAL,26154.2109,29519.0586,SURFACE CAR PARK,ELECTRONIC PARKING,7AM-10.30PM,NO,NO,0.0,9.99,N,1.2832343332565168,103.81673344232499
284,C,125,BTM,2023-02-27T09:35:56,BLK 2B BOON TIONG ROAD,27996.7913,29911.548,MULTI-STOREY CAR PARK,ELECTRONIC PARKING,WHOLE DAY,SUN & PH FR 7AM-10.30PM,YES,12.0,2.15,N,1.2867839238665024,103.8332897478358
496,C,328,BTM2,2023-02-27T09:35:55,BLK 8C BOON TIONG RD,27590.7177,29931.3587,MULTI-STOREY CAR PARK,ELECTRONIC PARKING,WHOLE DAY,SUN & PH FR 7AM-10.30PM,YES,12.0,2.15,N,1.28696308219404,103.82964101237162
336,C,170,SAM2,2023-02-27T09:36:01,BLK 61 STRATHMORE AVENUE,25516.9485,30705.7785,MULTI-STOREY CAR PARK,ELECTRONIC PARKING,WHOLE DAY,NO,YES,12.0,2.15,N,1.2939665666451008,103.8110072972267
243,C,242,TBM2,2023-02-27T09:35:59,BLK 73A TELOK BLANGAH STREET 32,25318.3879,28642.2103,MULTI-STOREY CAR PARK,ELECTRONIC PARKING,WHOLE DAY,SUN & PH FR 7AM-10.30PM,YES,4.0,2.15,N,1.2753043651293554,103.8092233201548
350,C,290,TJ34,2023-02-27T09:37:42,BLK 115A HO CHING ROAD,15894.1114,35134.964,MULTI-STOREY CAR PARK,ELECTRONIC PARKING,WHOLE DAY,SUN & PH FR 7AM-10.30PM,YES,10.0,2.15,N,1.3340202355395632,103.72454031144004
348,C,261,U31,2023-02-27T09:38:01,BLKS 526-534 BUKIT BATOK STREET 51,18847.0784,37666.2614,SURFACE CAR PARK,ELECTRONIC PARKING,WHOLE DAY,SUN & PH FR 7AM-10.30PM,YES,0.0,4.5,N,1.3569134026813678,103.75107360482853
413,C,297,BL13,2023-02-27T09:37:59,BLK 198/206 BOON LAY DRIVE,14836.3467,36315.1094,SURFACE CAR PARK,ELECTRONIC PARKING,WHOLE DAY,SUN & PH FR 7AM-10.30PM,YES,0.0,4.5,N,1.3446925875203717,103.71503519763307
248,C,72,HG10,2023-02-27T09:37:41,BLK 101-108 HOUGANG AVENUE 1,34361.8201,37404.5949,SURFACE CAR PARK,ELECTRONIC PARKING,WHOLE DAY,NO,YES,0.0,4.5,N,1.3545477132592327,103.89048363915803
1000,C,217,W3,2018-12-20T03:59:43,BLK 4A/6A WOODLANDS CENTRE ROAD,20906.7446,46925.2015,SURFACE CAR PARK,COUPON PARKING,WHOLE DAY,NO,YES,0.0,4.5,N,1.4406484395019017,103.76957878115853
224,C,140,BJ65,2023-02-27T09:38:06,BLK 632 SENJA ROAD,19702.7354,40739.1965,MULTI-STOREY CAR PARK,ELECTRONIC PARKING,NO,SUN & PH FR 7AM-10.30PM,YES,9.0,2.15,N,1.3847041571560248,103.75876137706072
70,C,27,CK19,2023-02-27T09:37:49,BLK 133/134 TECK WHYE LANE,18875.7734,40272.4492,SURFACE CAR PARK,ELECTRONIC PARKING,7AM-7PM,SUN & PH FR 7AM-10.30PM,NO,0.0,0.0,N,1.3804828191297818,103.7513306473736
10,C,0,CK4,2023-02-27T09:38:00,"BLK 135-138,141,142 & 145 TECK WHYE LANE/AVE",18912.6962,40234.9502,SURFACE CAR PARK,ELECTRONIC PARKING,7AM-10.30PM,SUN & PH FR 7AM-10.30PM,NO,0.0,1.8,N,1.3801437034327237,103.75166243741155
453,C,276,CK42,2023-02-27T09:37:41,BLK 754A CHOA CHU KANG NORTH 5,18363.8684,41631.0171,MULTI-STOREY CAR PARK,ELECTRONIC PARKING,WHOLE DAY,SUN & PH FR 7AM-10.30PM,YES,11.0,1.95,N,1.3927690420626113,103.7467303588618
298,C,236,CK7,2023-02-27T09:37:39,BLK 135A TECK WHYE LANE,18945.8673,40250.2699,MULTI-STOREY CAR PARK,ELECTRONIC PARKING,WHOLE DAY,SUN & PH FR 7AM-10.30PM,YES,10.0,1.8,N,1.3802822594561714,103.7519604993514
108,C,53,TW1,2023-02-27T09:37:48,BLK 25/26 TECK WHYE LANE,19301.8301,39963.4141,SURFACE CAR PARK,ELECTRONIC PARKING,7AM-10.30PM,SUN & PH FR 7AM-10.30PM,NO,0.0,0.0,N,1.3776881486417727,103.75515917100047
355,C,197,TW2,2023-02-27T09:37:55,BLK 15-20 TECK WHYE LANE,19225.6875,40080.8281,SURFACE CAR PARK,ELECTRONIC PARKING,WHOLE DAY,SUN & PH FR 7AM-10.30PM,YES,0.0,4.5,N,1.3787499751507208,103.75447493964884
338,C,210,TW3,2023-02-27T09:37:43,BLK 8/11 TECK WHYE LANE,19229.041,40255.5469,SURFACE CAR PARK,ELECTRONIC PARKING,WHOLE DAY,SUN & PH FR 7AM-10.30PM,YES,0.0,0.0,N,1.3803300689506603,103.75450502128673
120,Y,10,SK49,2023-02-27T09:34:42,BLK 319 ANCHORVALE DRIVE,34358.6228,41381.4575,MULTI-STOREY CAR PARK,ELECTRONIC PARKING,WHOLE DAY,SUN & PH FR 7AM-10.30PM,YES,12.0,2.15,N,1.3905130202271294,103.89045576272206
364,C,178,B16,2023-02-27T09:37:51,"BLKS 59, 62-65 NEW UPPER CHANGI ROAD",39934.8473,33971.8042,SURFACE CAR PARK,ELECTRONIC PARKING,WHOLE DAY,SUN & PH FR 7AM-10.30PM,YES,0.0,4.5,N,1.3235011178756233,103.94055949192449
385,C,174,B17,2023-02-27T09:37:54,BLK 52/57 NEW UPPER CHANGI ROAD,40079.2617,34051.0508,SURFACE CAR PARK,ELECTRONIC PARKING,WHOLE DAY,SUN & PH FR 7AM-10.30PM,YES,0.0,4.5,N,1.32421773800636,103.94185716126597
385,C,196,B20,2023-02-27T09:37:44,BLK 67/73 BEDOK SOUTH ROAD,40253.2539,33562.5352,SURFACE CAR PARK,ELECTRONIC PARKING,WHOLE DAY,SUN & PH FR 7AM-10.30PM,YES,0.0,4.5,N,1.3197997144802653,103.94342037708859
123,C,39,B42,2023-02-27T09:37:42,BLK 509/511 BEDOK NORTH STREET 3,38851.0273,34961.4805,SURFACE CAR PARK,ELECTRONIC PARKING,WHOLE DAY,NO,YES,0.0,0.0,N,1.3324517913824236,103.93082115682421
67,C,10,B45,2023-02-27T09:37:58,BLK 537/539 BEDOK NORTH STREET 3,38250.9386,34876.1148,SURFACE CAR PARK,ELECTRONIC PARKING,WHOLE DAY,NO,YES,0.0,4.5,N,1.3316799840248994,103.92542899880056
521,C,369,B6,2023-02-27T09:37:53,BLK 204/209 NEW UPPER CHANGI ROAD,38797.4548,34284.616,SURFACE CAR PARK,ELECTRONIC PARKING,WHOLE DAY,NO,YES,0.0,4.5,N,1.3263304964828235,103.9303395393729
99,C,4,B63,2023-02-27T09:37:43,BLK 739/745 BEDOK RESERVOIR ROAD,37937.9062,35591.9375,SURFACE CAR PARK,ELECTRONIC PARKING,WHOLE DAY,SUN & PH FR 7AM-10.30PM,YES,0.0,4.5,N,1.3381537269767942,103.92261646334421
756,C,443,B65,2023-02-27T09:37:43,BLK 155/172 BEDOK SOUTH ROAD/AVE 3,40502.4219,33588.332,SURFACE CAR PARK,ELECTRONIC PARKING,WHOLE DAY,SUN & PH FR 7AM-10.30PM,YES,0.0,5.4,N,1.3200329104338957,103.94565928752294
86,C,13,B7,2023-02-27T09:38:00,BLK 211/218 BEDOK NORTH STREET 1,38973.5423,34152.0151,SURFACE CAR PARK,ELECTRONIC PARKING,WHOLE DAY,NO,YES,0.0,4.5,N,1.325131239733241,103.93192173162572
41,C,27,B70,2023-02-27T09:37:51,BLK 201 BEDOK NORTH ST 1,38536.5889,34280.1109,SURFACE CAR PARK,ELECTRONIC PARKING,WHOLE DAY,NO,YES,0.0,0.0,N,1.3262898453461367,103.92799551906191
249,C,153,B71,2023-02-27T09:37:41,BLK 29C CHAI CHEE AVENUE,38125.3637,34059.3926,MULTI-STOREY CAR PARK,ELECTRONIC PARKING,WHOLE DAY,SUN & PH FR 7AM-10.30PM,YES,10.0,2.0,N,1.3242938891077893,103.9243003689824
129,C,0,B7A,2023-02-27T09:37:34,BLK 216/218 BEDOK NORTH ST 1,39208.9372,34373.2247,SURFACE CAR PARK,ELECTRONIC PARKING,WHOLE DAY,NO,YES,0.0,2.15,N,1.3271316923454208,103.93403695950919
113,C,68,B8,2023-02-27T09:37:51,BLK 201/203 BEDOK NORTH STREET 1,38567.8313,34234.9589,SURFACE CAR PARK,ELECTRONIC PARKING,WHOLE DAY,NO,YES,0.0,4.5,N,1.3258814963794465,103.92827623307666
250,C,223,B80,2023-02-27T09:37:17,BLK 739A BEDOK RESERVOIR ROAD,38020.7204,35604.61,MULTI-STOREY CAR PARK,ELECTRONIC PARKING,WHOLE DAY,SUN & PH FR 7AM-10.30PM,YES,6.0,2.15,N,1.3382683050605575,103.92336060080387
555,C,498,B84,2023-02-27T09:37:34,BLK 215A BEDOK CENTRAL,39227.6155,34273.0906,MULTI-STOREY CAR PARK,ELECTRONIC PARKING,WHOLE DAY,NO,YES,12.0,2.15,N,1.32622610951431,103.93420475731571
75,C,75,B90,2015-03-03T05:02:19,BLK 35A BEDOK SOUTH AVE 2,39831.9791,33865.2621,MULTI-STOREY CAR PARK,ELECTRONIC PARKING,WHOLE DAY,SUN & PH FR 7AM-10.30PM,YES,2.0,2.15,N,1.3225376305100722,103.93963512682517
104,C,63,CC5,2023-02-27T09:37:27,BLK 27 CHAI CHEE ROAD,38025.2345,34117.8358,SURFACE CAR PARK,ELECTRONIC PARKING,WHOLE DAY,NO,YES,0.0,0.0,N,1.3248224611390984,103.92340067458183
41,C,14,CC6,2023-02-27T09:37:41,BLK 25-27 CHAI CHEE ROAD,38043.4844,33973.1328,SURFACE CAR PARK,ELECTRONIC PARKING,WHOLE DAY,NO,YES,0.0,4.5,N,1.3235138140220333,103.92356461224138
353,C,188,B30,2023-02-27T09:37:34,BLK 119/123 BEDOK NORTH STREET 2,39733.8204,34684.0888,SURFACE CAR PARK,ELECTRONIC PARKING,WHOLE DAY,SUN & PH FR 7AM-10.30PM,YES,0.0,4.5,N,1.3299428346569537,103.93875343367463
415,C,278,B31,2023-02-27T09:37:29,BLK 124/129 BEDOK NORTH STREET 2,39744.5963,34524.6842,SURFACE CAR PARK,ELECTRONIC PARKING,WHOLE DAY,SUN & PH FR 7AM-10.30PM,YES,0.0,4.5,N,1.3285012341967177,103.93885019978532
755,C,596,TJ28,2023-02-27T09:37:56,BLK 364 YUNG AN ROAD,15439.9056,35477.7143,MULTI-STOREY CAR PARK,ELECTRONIC PARKING,WHOLE DAY,SUN & PH FR 7AM-10.30PM,YES,11.0,1.9,N,1.3371197566812667,103.72045887880465
833,C,604,TJ31,2023-02-27T09:38:02,BLK 331A KANG CHING ROAD,15708.2643,35640.7797,MULTI-STOREY CAR PARK,ELECTRONIC PARKING,WHOLE DAY,SUN & PH FR 7AM-10.30PM,YES,11.0,2.15,N,1.3385945699313218,103.72287016767315
384,C,384,TJ37,2019-12-01T08:28:01,BLK 337 TAH CHING ROAD,15670.2177,35606.278,MULTI-STOREY CAR PARK,ELECTRONIC PARKING,WHOLE DAY,SUN & PH FR 7AM-10.30PM,YES,12.0,2.15,N,1.3382825338635944,103.72252831122393
115,C,81,AM16,2023-02-27T09:35:07,BLK 256A ANG MO KIO STREET 21,28267.0582,39151.8344,MULTI-STOREY CAR PARK,ELECTRONIC PARKING,WHOLE DAY,SUN & PH FR 7AM-10.30PM,YES,2.0,2.15,N,1.3703498012136093,103.83571828515707
91,C,46,AM32,2023-02-27T09:32:28,BLK 255A ANG MO KIO ST 21,28117.7689,39172.0389,MULTI-STOREY CAR PARK,ELECTRONIC PARKING,WHOLE DAY,NO,YES,2.0,2.15,N,1.3705325244610682,103.8343768155435
385,C,216,BJ2,2023-02-27T09:37:43,BLK 141-151 GANGSA/PETIR ROAD,20581.8743,39791.6392,SURFACE CAR PARK,ELECTRONIC PARKING,NO,SUN & PH FR 7AM-10.30PM,YES,0.0,4.5,N,1.3761350307538076,103.7666613402764
287,C,188,CK48,2023-02-27T09:37:48,BLK 604A CHOA CHU KANG ST 62,18189.9873,42143.3391,MULTI-STOREY CAR PARK,ELECTRONIC PARKING,WHOLE DAY,SUN & PH FR 7AM-10.30PM,YES,10.0,2.0,N,1.3974022344611845,103.74516772920894
544,C,325,BE8,2023-02-27T09:35:58,"BLK 145-150A, 151 BISHAN STREET 11",30447.9395,36286.4727,SURFACE CAR PARK,ELECTRONIC PARKING,WHOLE DAY,SUN & PH FR 7AM-10.30PM,YES,0.0,4.5,N,1.3444363922390985,103.85531480784525
198,C,0,SE11,2023-02-27T09:35:50,BLK 151/154 SERANGOON NORTH AVE 1/2,32462.735,39138.1824,SURFACE CAR PARK,ELECTRONIC PARKING,WHOLE DAY,NO,YES,0.0,4.5,N,1.3702260011119238,103.87341939616748
548,C,476,SE20,2023-02-27T09:35:54,BLK 264 SERANGOON CENTRAL,32315.8014,37076.1308,MULTI-STOREY CAR PARK,ELECTRONIC PARKING,WHOLE DAY,NO,YES,2.0,1.9,N,1.351577567630948,103.87209879674317
29,C,3,SE21,2023-02-27T09:35:54,BLK 262/263 SERANGOON CENTRAL,32306.5934,37281.6467,SURFACE CAR PARK,ELECTRONIC PARKING,WHOLE DAY,SUN & PH FR 7AM-10.30PM,YES,0.0,4.5,N,1.3534361812042228,103.87201608645344
20,C,0,SE22,2023-02-27T09:35:54,BLK 261/263 SERANGOON CENTRAL,32319.1389,37361.3217,SURFACE CAR PARK,ELECTRONIC PARKING,WHOLE DAY,SUN & PH FR 7AM-10.30PM,YES,0.0,4.5,N,1.3541567315681,103.8721288272638
185,C,132,SE23,2023-02-27T09:35:32,BLK 253/254 SERANGOON CENTRAL DRIVE,32175.5882,37349.5073,MULTI-STOREY CAR PARK,ELECTRONIC PARKING,WHOLE DAY,SUN & PH FR 7AM-10.30PM,YES,7.0,1.9,N,1.3540499067911238,103.87083893019735
167,C,57,SE24,2023-02-27T09:35:42,BLK 265 SERANGOON AVENUE 3,32248.5137,37207.3633,SURFACE CAR PARK,ELECTRONIC PARKING,WHOLE DAY,NO,YES,0.0,0.0,N,1.3527643970392265,103.87149419262846
309,C,281,SE53,2023-02-27T09:33:35,BLK 150 SERANGOON NORTH AVE 2,32646.5636,39045.8726,MULTI-STOREY CAR PARK,ELECTRONIC PARKING,WHOLE DAY,SUN & PH FR 7AM-10.30PM,YES,4.0,2.15,N,1.3693911560834149,103.87507121088753
89,Y,0,SK50,2023-02-27T09:34:43,BLK 323 SENGKANG EAST WAY,34592.9265,41686.8525,MULTI-STOREY CAR PARK,ELECTRONIC PARKING,WHOLE DAY,SUN & PH FR 7AM-10.30PM,YES,12.0,2.15,N,1.393274849332756,103.89256123233135
88,C,25,FR4M,2023-02-27T09:28:56,BLK 6A FARRER ROAD,25130.4814,33238.9594,MULTI-STOREY CAR PARK,ELECTRONIC PARKING,WHOLE DAY,NO,YES,3.0,2.15,N,1.3168757266186237,103.80753449141054
88,C,48,BJ31,2023-02-27T09:37:41,BLK 513A JELAPANG ROAD,20672.7922,41096.8488,MULTI-STOREY CAR PARK,ELECTRONIC PARKING,7AM-10.30PM,SUN & PH FR 7AM-10.30PM,NO,2.0,2.15,N,1.3879388940244672,103.76747797804047
484,C,401,BJ32,2023-02-27T09:38:01,BLK 518A JELAPANG ROAD,20612.4337,40944.82,MULTI-STOREY CAR PARK,ELECTRONIC PARKING,WHOLE DAY,SUN & PH FR 7AM-10.30PM,YES,12.0,2.15,N,1.3865639857228234,103.76693564904001
140,C,97,BJ34,2023-02-27T09:37:51,BLK 517A JELAPANG ROAD,20565.9376,41081.058,MULTI-STOREY CAR PARK,ELECTRONIC PARKING,WHOLE DAY,SUN & PH FR 7AM-10.30PM,YES,2.0,2.15,N,1.3877960606883626,103.76651781167364
140,C,96,BJ35,2023-02-27T09:38:02,BLK 521A JELAPANG ROAD,20498.7021,40997.6232,MULTI-STOREY CAR PARK,ELECTRONIC PARKING,WHOLE DAY,SUN & PH FR 7AM-10.30PM,YES,2.0,2.15,N,1.3870414895407535,103.76591367064594
140,C,94,BJ36,2023-02-27T09:37:58,BLK 525A JELAPANG ROAD,20434.7146,40912.3617,MULTI-STOREY CAR PARK,ELECTRONIC PARKING,WHOLE DAY,SUN & PH FR 7AM-10.30PM,YES,2.0,2.15,N,1.386270399087044,103.76533871621312
512,C,380,BJ37,2023-02-27T09:37:57,BLK 529A JELAPANG ROAD,20361.9478,40819.6691,MULTI-STOREY CAR PARK,ELECTRONIC PARKING,WHOLE DAY,SUN & PH FR 7AM-10.30PM,YES,12.0,2.15,N,1.3854321020503486,103.7646848754351
50,C,0,TP31,2023-02-27T09:35:57,BLK 109/111 TO 115 LORONG 1 TOA PAYOH,29396.9527,35917.6634,SURFACE CAR PARK,ELECTRONIC PARKING,WHOLE DAY,SUN & PH FR 7AM-10.30PM,YES,0.0,4.5,N,1.3411010791515976,103.84587103389032
216,C,172,BJ38,2023-02-27T09:38:00,BLK 533A BUKIT PANJANG RING ROAD,20221.922,40787.0081,MULTI-STOREY CAR PARK,ELECTRONIC PARKING,WHOLE DAY,SUN & PH FR 7AM-10.30PM,YES,7.0,2.15,N,1.3851366908698401,103.76342664649454
550,C,456,BJ39,2023-02-27T09:37:44,BLK 537A BUKIT PANJANG RING ROAD,20158.8662,40686.9514,MULTI-STOREY CAR PARK,ELECTRONIC PARKING,WHOLE DAY,SUN & PH FR 7AM-10.30PM,YES,7.0,2.15,N,1.3842317977235148,103.76286006929963
585,C,413,BJ40,2023-02-27T09:37:53,BLK 541A BUKIT PANJANG RING ROAD,20163.4889,40531.4817,MULTI-STOREY CAR PARK,ELECTRONIC PARKING,WHOLE DAY,SUN & PH FR 7AM-10.30PM,YES,11.0,2.15,N,1.3828257877526797,103.76290164919327
344,C,233,CK38,2023-02-27T09:37:45,BLK 541A CHOA CHU KANG STREET 52,18148.0534,41666.0012,MULTI-STOREY CAR PARK,ELECTRONIC PARKING,WHOLE DAY,SUN & PH FR 7AM-10.30PM,YES,10.0,1.9,N,1.3930853528194667,103.74479108110928
938,C,567,A38,2023-02-27T09:36:59,BLK 407/410/421 ANG MO KIO AVE 10,30367.0774,38445.7028,SURFACE CAR PARK,ELECTRONIC PARKING,WHOLE DAY,SUN & PH FR 7AM-10.30PM,YES,0.0,4.5,N,1.3639637058040253,103.85458838271092
141,C,60,A43,2023-02-27T09:36:13,BLK 457/458/460 ANG MO KIO ST 44,30887.78,38670.51,SURFACE CAR PARK,ELECTRONIC PARKING,WHOLE DAY,SUN & PH FR 7AM-10.30PM,YES,0.0,0.0,N,1.3659967355493277,103.8592672719767
750,C,499,CK8,2023-02-27T09:37:50,BLK 201-221 CHOA CHU KANG CENTRAL,18405.5916,40449.7464,SURFACE CAR PARK,ELECTRONIC PARKING,7AM-10.30PM,SUN & PH FR 7AM-10.30PM,NO,0.0,4.5,N,1.3820860793135727,103.74710566112675
373,C,316,CK8A,2023-02-27T09:37:44,BLK 203A CHOA CHU KANG AVE 1/CENTRAL,18614.0227,40353.8181,MULTI-STOREY CAR PARK,ELECTRONIC PARKING,WHOLE DAY,SUN & PH FR 7AM-10.30PM,YES,12.0,2.15,N,1.3812186067394712,103.74897859928703
371,C,220,CK39,2023-02-27T09:37:55,BLK 559A CHOA CHU KANG NORTH 6,18090.945,42004.5732,MULTI-STOREY CAR PARK,ELECTRONIC PARKING,7AM-10.30PM,SUN & PH FR 7AM-10.30PM,NO,11.0,2.0,N,1.3961472532491073,103.74427780249434
444,C,312,CK41,2023-02-27T09:38:00,BLK 708A CHOA CHU KANG STREET 53,18333.4408,41430.698,MULTI-STOREY CAR PARK,ELECTRONIC PARKING,WHOLE DAY,SUN & PH FR 7AM-10.30PM,YES,11.0,2.0,N,1.3909574199697599,103.74645700945592
673,C,463,CK46,2023-02-27T09:37:55,BLK 792A CHOA CHU KANG NTH 6,18675.6762,41907.1414,MULTI-STOREY CAR PARK,ELECTRONIC PARKING,WHOLE DAY,SUN & PH FR 7AM-10.30PM,YES,10.0,2.0,N,1.395266310343541,103.74953210680319
695,C,533,CK47,2020-11-03T08:46:36,BLK 787A CHOA CHU KANG DRIVE,18471.7225,41904.1787,MULTI-STOREY CAR PARK,ELECTRONIC PARKING,WHOLE DAY,SUN & PH FR 7AM-10.30PM,YES,10.0,2.0,N,1.3952394503711885,103.74769942278269
396,C,230,SE32,2023-02-27T09:35:30,BLK 521/530 SERANGOON NORTH AVENUE 4,32337.793,39365.832,SURFACE CAR PARK,ELECTRONIC PARKING,7AM-10.30PM,SUN & PH FR 7AM-10.30PM,NO,0.0,4.5,N,1.3722848009296462,103.87229673775931
302,C,163,SE33,2023-02-27T09:35:39,BLK 537/542 SERANGOON NORTH AVENUE 4,32372.4102,39573.3748,SURFACE CAR PARK,ELECTRONIC PARKING,7AM-10.30PM,SUN & PH FR 7AM-10.30PM,NO,0.0,4.5,N,1.374161738277277,103.8726078285382
198,C,104,SE39,2023-02-27T09:35:39,BLK 542A SERANGOON NORTH AVENUE 4,32271.7043,39500.6075,MULTI-STOREY CAR PARK,ELECTRONIC PARKING,WHOLE DAY,SUN & PH FR 7AM-10.30PM,YES,6.0,2.15,N,1.373503671772787,103.87170290325065
1004,C,831,BJ43,2023-02-27T09:37:39,BLK 603A SENJA ROAD,20027.2654,40409.2626,MULTI-STOREY CAR PARK,ELECTRONIC PARKING,WHOLE DAY,SUN & PH FR 7AM-10.30PM,YES,12.0,2.15,N,1.381720445982174,103.76167761264911
378,C,246,CK22,2023-02-27T09:37:50,BLK 343A CHOA CHU KANG LOOP,18276.2056,40644.1197,MULTI-STOREY CAR PARK,ELECTRONIC PARKING,WHOLE DAY,NO,YES,11.0,1.9,N,1.3838438770093517,103.74594296799225
420,C,295,CK36,2023-02-27T09:37:47,BLK 527A CHOA CHU KANG STREET 51,17735.8704,41577.6177,MULTI-STOREY CAR PARK,ELECTRONIC PARKING,WHOLE DAY,SUN & PH FR 7AM-10.30PM,YES,9.0,1.9,N,1.3922859022308816,103.74108732653997
306,C,202,CK37,2023-02-27T09:37:41,BLK 552A CHOA CHU KANG STREET 52,17863.0257,41773.0092,MULTI-STOREY CAR PARK,ELECTRONIC PARKING,WHOLE DAY,SUN & PH FR 7AM-10.30PM,YES,10.0,1.9,N,1.3940529952860854,103.7422298477562
543,C,353,A25,2023-02-27T09:36:43,BLK 330/337 ANG MO KIO AVE 8,30037.566,38313.6296,SURFACE CAR PARK,ELECTRONIC PARKING,WHOLE DAY,SUN & PH FR 7AM-10.30PM,YES,0.0,4.5,N,1.362769307428514,103.85162748927682
118,C,50,A81,2023-02-27T09:36:45,BLK 170/172 ANG MO KIO ST 13,28351.6931,39594.7701,SURFACE CAR PARK,ELECTRONIC PARKING,WHOLE DAY,SUN & PH FR 7AM-10.30PM,YES,0.0,9.99,N,1.3743555525255577,103.83647879468089
201,C,123,A82,2023-02-27T09:36:45,BLK 173/176 ANG MO KIO AVE 4,28342.7741,39740.6593,SURFACE CAR PARK,ELECTRONIC PARKING,WHOLE DAY,SUN & PH FR 7AM-10.30PM,YES,0.0,0.0,N,1.375674922394817,103.83639865272272
146,C,75,A9,2023-02-27T09:36:07,BLK 202/203 ANG MO KIO STREET 22,29232.3606,38900.2315,SURFACE CAR PARK,ELECTRONIC PARKING,WHOLE DAY,SUN & PH FR 7AM-10.30PM,YES,0.0,4.5,N,1.3680743699781341,103.8443921978058
108,C,70,A98,2023-02-27T09:34:56,BLK 259 ANG MO KIO AVE 2,27837.0334,39020.7488,SURFACE CAR PARK,ELECTRONIC PARKING,WHOLE DAY,SUN & PH FR 7AM-10.30PM,YES,0.0,0.0,N,1.369164310596369,103.83185420964786
873,C,704,BJ55,2023-02-27T09:37:54,BLK 625A SENJA ROAD,19927.0486,40913.764,MULTI-STOREY CAR PARK,ELECTRONIC PARKING,WHOLE DAY,SUN & PH FR 7AM-10.30PM,YES,13.0,2.15,N,1.3862829447414375,103.76077695178896
554,C,412,BJ56,2023-02-27T09:38:00,BLK 629A SENJA ROAD,19723.7125,40870.4549,MULTI-STOREY CAR PARK,ELECTRONIC PARKING,WHOLE DAY,SUN & PH FR 7AM-10.30PM,YES,14.0,2.15,N,1.385891216047011,103.75894983505444
285,C,216,CK44,2023-02-27T09:37:45,BLK 762A CHOA CHU KANG NTH 5,18631.6662,41611.081,MULTI-STOREY CAR PARK,ELECTRONIC PARKING,WHOLE DAY,SUN & PH FR 7AM-10.30PM,YES,10.0,2.0,N,1.3925888350648057,103.7491367373063
220,C,125,CK45,2023-02-27T09:37:52,BLK 771A CHOA CHU KANG ST 54,18724.0529,41824.3887,MULTI-STOREY CAR PARK,ELECTRONIC PARKING,WHOLE DAY,SUN & PH FR 7AM-10.30PM,YES,10.0,2.0,N,1.394517940974819,103.74996683599052
300,C,188,SE35,2023-02-27T09:35:42,BLK 500/506B SERANGOON NORTH AVENUE 4,32778.0707,39455.8826,SURFACE CAR PARK,ELECTRONIC PARKING,7AM-10.30PM,SUN & PH FR 7AM-10.30PM,NO,0.0,4.5,N,1.3730991180086007,103.87625296021666
300,C,182,SE38,2023-02-27T09:35:42,BLK 504A SERANGOON NORTH AVENUE 4,32718.2316,39550.3266,MULTI-STOREY CAR PARK,ELECTRONIC PARKING,WHOLE DAY,SUN & PH FR 7AM-10.30PM,YES,10.0,2.0,N,1.3739532452074859,103.87571527826657
407,C,269,SE40,2023-02-27T09:35:49,BLK 550A SERANGOON NORTH AVENUE 3,32084.7485,39394.1524,MULTI-STOREY CAR PARK,ELECTRONIC PARKING,WHOLE DAY,SUN & PH FR 7AM-10.30PM,YES,10.0,2.15,N,1.3725409566369569,103.87002295696432
611,C,501,BJ30,2023-02-27T09:38:00,BLK 510A JELAPANG ROAD,20839.8705,40996.2639,MULTI-STOREY CAR PARK,ELECTRONIC PARKING,WHOLE DAY,SUN & PH FR 7AM-10.30PM,YES,12.0,2.15,N,1.3870292824106258,103.76897932907721
202,C,111,CK16,2023-02-27T09:37:39,BLK 401/408 CHOA CHU KANG AVE 3,17528.125,40178.0781,SURFACE CAR PARK,ELECTRONIC PARKING,7AM-10.30PM,SUN & PH FR 7AM-10.30PM,NO,0.0,0.0,N,1.3796289105733506,103.73922107254207
767,C,559,CK49,2023-02-27T09:37:49,BLK 610A CHOA CHU KANG ST 62,18006.9629,42295.9806,MULTI-STOREY CAR PARK,ELECTRONIC PARKING,WHOLE DAY,SUN & PH FR 7AM-10.30PM,YES,9.0,2.0,N,1.3987826049446004,103.74352305674668
374,C,248,CK50,2021-02-22T09:02:22,BLK 611A CHOA CHU KANG ST 62,18031.8277,42477.9839,MULTI-STOREY CAR PARK,ELECTRONIC PARKING,WHOLE DAY,SUN & PH FR 7AM-10.30PM,YES,9.0,2.0,N,1.4004285839443864,103.74374642444515
104,C,77,CKT1,2023-02-27T09:37:41,BLK BETWEEN 404 & 426 CHOA CHU KANG AVENUE 1/4,17457.2727,40253.9548,SURFACE CAR PARK,ELECTRONIC PARKING,WHOLE DAY,NO,YES,0.0,0.0,N,1.380315085920983,103.73858438589501
318,C,219,CK51,2023-02-27T09:38:01,BLK 621A CHOA CHU KANG NORTH 7,18459.6171,42391.2166,MULTI-STOREY CAR PARK,ELECTRONIC PARKING,WHOLE DAY,NO,YES,10.0,2.0,N,1.3996440372231296,103.74759048649082
218,C,137,CK12,2023-02-27T09:37:58,BLK 409/413 CHOA CHU KANG AVE 3,17816.8828,40361.3125,SURFACE CAR PARK,ELECTRONIC PARKING,7AM-10.30PM,SUN & PH FR 7AM-10.30PM,NO,0.0,4.5,N,1.3812861166246784,103.74181570834476
326,C,220,CK13,2023-02-27T09:37:55,BLK 414-420 CHOA CHU KANG AVENUE 4,17841.917,40541.616,SURFACE CAR PARK,ELECTRONIC PARKING,7AM-10.30PM,SUN & PH FR 7AM-10.30PM,NO,0.0,4.5,N,1.3829167235416242,103.74204059676565
185,C,103,CK17,2023-02-27T09:37:55,BLK 421/428 CHOA CHU KANG AVENUE 4,17691.7227,40448.332,SURFACE CAR PARK,ELECTRONIC PARKING,7AM-10.30PM,SUN & PH FR 7AM-10.30PM,NO,0.0,0.0,N,1.3820730449413998,103.74069102239307
136,C,92,CK30,2023-02-27T09:37:54,BLK 248/250 CHOA CHU KANG AVENUE 2,18213.6543,40111.7031,SURFACE CAR PARK,ELECTRONIC PARKING,WHOLE DAY,SUN & PH FR 7AM-10.30PM,YES,0.0,0.0,N,1.3790288766966712,103.74538107497969
290,C,199,CK31,2023-02-27T09:37:44,BLK 251A CHOA CHU KANG AVENUE 2,18164.3898,40080.8939,MULTI-STOREY CAR PARK,ELECTRONIC PARKING,WHOLE DAY,SUN & PH FR 7AM-10.30PM,YES,9.0,2.0,N,1.3787502331490429,103.74493840789525
389,C,272,BJ41,2023-02-27T09:38:05,BLK 152A GANGSA ROAD,20447.5641,39722.7569,MULTI-STOREY CAR PARK,ELECTRONIC PARKING,WHOLE DAY,SUN & PH FR 7AM-10.30PM,YES,12.0,2.15,N,1.3755120500520865,103.7654544839076
931,C,637,CK20,2023-02-27T09:37:51,"BLK 429, 438-441 CHOA CHU KANG AVENUE 4",17629.7003,40593.1789,SURFACE CAR PARK,ELECTRONIC PARKING,WHOLE DAY,SUN & PH FR 7AM-10.30PM,YES,0.0,0.0,N,1.383382964748632,103.74013365429617
232,C,143,CK23,2021-07-06T09:42:53,BLK 430-437 CHOA CHU KANG AVENUE 4,17782.5234,40677.3633,SURFACE CAR PARK,ELECTRONIC PARKING,WHOLE DAY,SUN & PH FR 7AM-10.30PM,YES,0.0,0.0,N,1.3841443511993476,103.74150685405424
318,C,199,CK34,2023-02-27T09:38:02,BLK 511A CHOA CHU KANG STREET 51,17736.9363,41167.5327,MULTI-STOREY CAR PARK,ELECTRONIC PARKING,WHOLE DAY,SUN & PH FR 7AM-10.30PM,YES,9.0,2.0,N,1.3885772458034669,103.74109704842282
669,C,573,CKM1,2021-07-06T09:42:54,BLK 429A CHOA CHU KANG AVENUE 4,17706.6149,40616.7716,MULTI-STOREY CAR PARK,ELECTRONIC PARKING,WHOLE DAY,SUN & PH FR 7AM-10.30PM,YES,10.0,2.0,N,1.3835963556122934,103.74082478082065
457,C,276,BJ1,2023-02-27T09:37:44,BLK 130-140 CASHEW ROAD,20878.08,39550.76,SURFACE CAR PARK,ELECTRONIC PARKING,7AM-10.30PM,SUN & PH FR 7AM-10.30PM,NO,0.0,0.0,N,1.3739566801241152,103.76932302016631
672,C,486,BJ48,2023-02-27T09:38:01,BLK 651A SENJA LINK,20352.8446,41013.5834,MULTI-STOREY CAR PARK,ELECTRONIC PARKING,WHOLE DAY,SUN & PH FR 7AM-10.30PM,YES,6.0,2.15,N,1.3871857898272917,103.76460302573584
235,C,167,CK33,2023-02-27T09:37:40,BLK 502A CHOA CHU KANG STREET 51,17943.2973,41180.8424,MULTI-STOREY CAR PARK,ELECTRONIC PARKING,WHOLE DAY,SUN & PH FR 7AM-10.30PM,YES,7.0,1.9,N,1.388697685879254,103.74295135477603
193,C,84,A37,2023-02-27T09:36:37,BLK 446/449/453 ANG MO KIO ST 43,30474.8188,38904.5192,SURFACE CAR PARK,ELECTRONIC PARKING,WHOLE DAY,SUN & PH FR 7AM-10.30PM,YES,0.0,4.5,N,1.3681130684869125,103.85555655070168
200,C,95,A39,2023-02-27T09:36:59,BLK 401/405 ANG MO KIO AVE 10,30309.63,38134.69,SURFACE CAR PARK,ELECTRONIC PARKING,WHOLE DAY,SUN & PH FR 7AM-10.30PM,YES,0.0,0.0,N,1.361151021658676,103.85407215463438
158,C,70,A68,2023-02-27T09:36:53,BLK 620/624/626 ANG MO KIO ST 61,28727.3335,40428.7342,SURFACE CAR PARK,ELECTRONIC PARKING,WHOLE DAY,SUN & PH FR 7AM-10.30PM,YES,0.0,0.0,N,1.381897618566015,103.83985421482735
134,C,59,A70,2023-02-27T09:36:53,BLK 629/626 ANG MO KIO AVE 4,28755.4887,40287.5326,SURFACE CAR PARK,ELECTRONIC PARKING,WHOLE DAY,SUN & PH FR 7AM-10.30PM,YES,0.0,9.99,N,1.3806206411419468,103.84010720676366
185,C,68,A71,2023-02-27T09:36:53,BLK 628/632 ANG MO KIO ST 61,28826.1219,40219.911,SURFACE CAR PARK,ELECTRONIC PARKING,WHOLE DAY,SUN & PH FR 7AM-10.30PM,YES,0.0,5.4,N,1.3800090936953118,103.84074189671782
500,C,392,CK40,2023-02-27T09:38:02,BLK 567A CHOA CHU KANG STREET 52,18298.9982,41919.8106,MULTI-STOREY CAR PARK,ELECTRONIC PARKING,WHOLE DAY,SUN & PH FR 7AM-10.30PM,YES,11.0,1.9,N,1.395380762135428,103.74614735348564
520,C,353,A40,2023-02-27T09:36:52,BLK 471/476 ANG MO KIO ST 44,30633.47,38267.95,SURFACE CAR PARK,ELECTRONIC PARKING,WHOLE DAY,SUN & PH FR 7AM-10.30PM,YES,0.0,9.99,N,1.3623561505378559,103.856982085985
150,C,57,A66,2023-02-27T09:36:57,BLK 601/604/603 ANG MO KIO AVE 5,28260.64,40279.16,SURFACE CAR PARK,ELECTRONIC PARKING,WHOLE DAY,SUN & PH FR 7AM-10.30PM,YES,0.0,5.4,N,1.3805449309084086,103.83566062297832
476,C,373,A69,2023-02-27T09:36:58,BLK 623/625/627 ANG MO KIO ST 61,28960.06,40400.41,SURFACE CAR PARK,ELECTRONIC PARKING,WHOLE DAY,SUN & PH FR 7AM-10.30PM,YES,0.0,5.4,N,1.3816414579421694,103.841945435749
12,C,0,A30,2023-02-27T09:36:29,BLK 129/134 ANG MO KIO STREET 12,29012.7631,39222.5981,SURFACE CAR PARK,ELECTRONIC PARKING,WHOLE DAY,SUN & PH FR 7AM-10.30PM,YES,0.0,4.5,N,1.3709897466881378,103.84241897219856
191,C,114,AM80,2023-02-27T09:35:48,BLK 130A ANG MO KIO ST 12,28950.7223,39184.6976,MULTI-STOREY CAR PARK,ELECTRONIC PARKING,WHOLE DAY,SUN & PH FR 7AM-10.30PM,YES,4.0,2.15,N,1.3706469901715552,103.84186149048293
222,C,165,AM81,2023-02-27T09:35:48,BLK 132A ANG MO KIO ST 12,28960.3285,39294.4158,MULTI-STOREY CAR PARK,ELECTRONIC PARKING,WHOLE DAY,SUN & PH FR 7AM-10.30PM,YES,4.0,2.15,N,1.3716392420558625,103.84194781252431
220,C,147,CC7,2023-02-27T09:37:28,BLK 30/40 CHAI CHEE AVENUE,38279.717,34164.7007,SURFACE CAR PARK,ELECTRONIC PARKING,WHOLE DAY,SUN & PH FR 7AM-10.30PM,YES,0.0,4.5,N,1.3252462054528282,103.92568734971881
385,C,240,B88,2023-02-27T09:37:51,BLK 34A BED0K SOUTH AVE 2,39683.2391,33835.9985,MULTI-STOREY CAR PARK,ELECTRONIC PARKING,WHOLE DAY,SUN & PH FR 7AM-10.30PM,YES,2.0,2.15,N,1.3222730385459662,103.93829861018826
500,C,463,H87L,2023-02-27T09:35:34,BLK 950 TO 976 HOUGANG AVE 9 /STREET 91,33038.8293,40052.7361,SURFACE CAR PARK,COUPON PARKING,NO,NO,NO,0.0,0.0,N,1.3784968024576356,103.87859616392002
585,C,383,B66,2023-02-27T09:37:57,BLK 637A BEDOK RESERVOIR ROAD,35903.9044,34750.8852,MULTI-STOREY CAR PARK,ELECTRONIC PARKING,WHOLE DAY,SUN & PH FR 7AM-10.30PM,YES,12.0,1.9,N,1.33054815487274,103.90433956320607
197,C,101,B53,2023-02-27T09:37:31,BLK 625/629 BEDOK RESERVOIR ROAD,37110.0129,35160.4187,SURFACE CAR PARK,ELECTRONIC PARKING,WHOLE DAY,SUN & PH FR 7AM-10.30PM,YES,0.0,4.5,N,1.3342514890920405,103.91517723527485
300,C,193,B52,2023-02-27T09:37:33,BLK 617/624 BEDOK RESERVOIR ROAD,37412.3828,35122.5781,SURFACE CAR PARK,ELECTRONIC PARKING,WHOLE DAY,SUN & PH FR 7AM-10.30PM,YES,0.0,4.5,N,1.3339091800300162,103.91789418746009
322,C,201,B51,2023-02-27T09:37:23,BLK 611/616 BEDOK RESERVOIR ROAD,37245.6836,34927.6641,SURFACE CAR PARK,ELECTRONIC PARKING,WHOLE DAY,SUN & PH FR 7AM-10.30PM,YES,0.0,4.5,N,1.3321465000881816,103.91639624241323
6,C,0,NT6L,2023-02-25T04:59:38,,,,,,,,,,,,,
197,C,109,B35,2023-02-27T09:38:04,BLK 137/140 BEDOK NORTH AVENUE 3,39335.7148,34586.2422,SURFACE CAR PARK,ELECTRONIC PARKING,WHOLE DAY,SUN & PH FR 7AM-10.30PM,YES,0.0,4.5,N,1.3290580972039858,103.93517620266337
274,C,197,B34,2023-02-27T09:37:41,BLK 134/136 BEDOK NORTH AVENUE 3,39391.0547,34503.7773,SURFACE CAR PARK,ELECTRONIC PARKING,WHOLE DAY,SUN & PH FR 7AM-10.30PM,YES,0.0,4.5,N,1.3283122943595482,103.93567343083882
129,C,86,B33,2023-02-27T09:37:41,BLK 131/133 BEDOK NORTH AVENUE 3,39405.1638,34385.3038,SURFACE CAR PARK,ELECTRONIC PARKING,WHOLE DAY,SUN & PH FR 7AM-10.30PM,YES,0.0,4.5,N,1.3272408584024238,103.93580016456161
124,C,85,B32,2023-02-27T09:37:41,BLK 130/132 BEDOK NORTH STREET 2,39511.7026,34404.0851,SURFACE CAR PARK,ELECTRONIC PARKING,WHOLE DAY,SUN & PH FR 7AM-10.30PM,YES,0.0,4.5,N,1.3274106694551349,103.93675747950438
43,C,0,KB17,2023-02-27T09:35:40,BLK 23 BENDEMEER ROAD,31293.2559,33326.1406,SURFACE CAR PARK,ELECTRONIC PARKING,WHOLE DAY,SUN & PH FR 7AM-10.30PM,YES,0.0,4.5,N,1.3176641202622537,103.86291017151486
164,C,16,KB10,2023-02-27T09:37:49,BLK 30 BENDEMEER ROAD,31369.1973,33463.1641,SURFACE CAR PARK,ELECTRONIC PARKING,7AM-10.30PM,SUN & PH FR 7AM-10.30PM,NO,0.0,4.5,N,1.3189033039657896,103.86359255881808
209,C,116,KB11,2023-02-27T09:37:49,BLK 34 WHAMPOA WEST,31383.6001,33648.8612,SURFACE CAR PARK,ELECTRONIC PARKING,WHOLE DAY,SUN & PH FR 7AM-10.30PM,YES,0.0,4.5,N,1.3205826810878298,103.86372199579338
41,C,16,SD9,2023-02-27T09:35:52,BLK 114 LOR 3 GEYLANG,32471.3589,32673.4722,SURFACE CAR PARK,ELECTRONIC PARKING,NO,NO,YES,0.0,4.15,N,1.311761470021411,103.87349593503212
267,C,171,W54,2023-02-27T09:37:23,BLK 824A WOODLANDS STREET 81,23076.3795,46789.1914,MULTI-STOREY CAR PARK,ELECTRONIC PARKING,WHOLE DAY,SUN & PH FR 7AM-10.30PM,YES,11.0,2.0,N,1.439418878830239,103.78907507943372
563,C,468,BE23,2023-02-27T09:37:39,BLK 514 BISHAN STREET 13,29830.0702,36912.2681,MULTI-STOREY CAR PARK,ELECTRONIC PARKING,WHOLE DAY,NO,YES,2.0,1.8,N,1.350095907120638,103.8497629135692
361,C,232,Y52M,2023-02-27T09:37:35,BLK 456A YISHUN ST 41,29291.1048,44676.2316,MULTI-STOREY CAR PARK,ELECTRONIC PARKING,WHOLE DAY,SUN & PH FR 7AM-10.30PM,YES,12.0,2.15,N,1.420310437739333,103.84492031076049
262,C,164,Y9,2023-02-27T09:37:36,BLK 747/752 YISHUN STREET 72,28077.2305,45507.8047,SURFACE CAR PARK,ELECTRONIC PARKING,WHOLE DAY,SUN & PH FR 7AM-10.30PM,YES,0.0,4.5,N,1.4278309135192575,103.83401256586953
60,C,0,Y20,2023-02-27T09:37:33,BLK 293/294 YISHUN STREET 22,28504.9276,46440.0785,SURFACE CAR PARK,ELECTRONIC PARKING,WHOLE DAY,SUN & PH FR 7AM-10.30PM,YES,0.0,9.99,N,1.436262055930077,103.83785583613886
1145,C,756,Y10,2023-02-27T09:37:35,BLK 753/774 YISHUN STREET 72/AVENUE 3,27995.96,45066.8145,SURFACE CAR PARK,ELECTRONIC PARKING,WHOLE DAY,SUN & PH FR 7AM-10.30PM,YES,0.0,0.0,N,1.4238427576500365,103.8332822753995
351,C,214,PM30,2023-02-27T09:34:36,BLK 614A ELIAS ROAD,40114.6224,39748.7266,MULTI-STOREY CAR PARK,ELECTRONIC PARKING,7AM-10.30PM,NO,NO,10.0,1.9,N,1.3757453839953446,103.94217718688328
388,C,274,PM3,2023-02-27T09:37:07,BLK 225A PASIR RIS STREET 21,42201.9401,39312.6071,MULTI-STOREY CAR PARK,ELECTRONIC PARKING,WHOLE DAY,SUN & PH FR 7AM-10.30PM,YES,13.0,1.9,N,1.3718003498167433,103.96093300168212
1000,C,898,TWM3,2023-02-27T09:37:55,BLK 160A JALAN TECK WHYE,19541.9487,40262.0437,MULTI-STOREY CAR PARK,ELECTRONIC PARKING,WHOLE DAY,SUN & PH FR 7AM-10.30PM,YES,12.0,2.15,N,1.380388915745668,103.75731672497658
1272,C,1137,CK61,2023-02-27T09:37:31,BLK 686 CHOA CHU KANG CRESCENT,18607.321,42882.7597,MULTI-STOREY CAR PARK,ELECTRONIC PARKING,WHOLE DAY,SUN & PH FR 7AM-10.30PM,YES,13.0,2.15,N,1.40408941986099,103.7489175658637
1318,C,1174,CK60,2023-02-27T09:37:51,BLK 683 CHOA CHU KANG CRESCENT,18268.595,42905.4416,MULTI-STOREY CAR PARK,ELECTRONIC PARKING,WHOLE DAY,SUN & PH FR 7AM-10.30PM,YES,12.0,2.15,N,1.4042944339787446,103.74587382647135
381,C,259,SK91,2023-02-27T09:37:17,BLK 281 SENGKANG EAST AVE,34477.2956,40826.5256,MULTI-STOREY CAR PARK,ELECTRONIC PARKING,WHOLE DAY,SUN & PH FR 7AM-10.30PM,YES,14.0,2.15,N,1.3854943914724183,103.89152200733054
167,C,72,SK75,2023-02-27T09:37:20,BLK 441 FERNVALE ROAD,32650.9465,41502.7315,MULTI-STOREY CAR PARK,ELECTRONIC PARKING,7AM-10.30PM,NO,NO,3.0,2.15,N,1.391610101929328,103.87511098212606
225,C,152,SK74,2023-02-27T09:37:30,BLK 439 SENGKANG WEST AVE,32927.5192,41564.4693,MULTI-STOREY CAR PARK,ELECTRONIC PARKING,7AM-10.30PM,NO,NO,9.0,2.15,N,1.3921683906630222,103.87759621476171
369,C,258,SK88,2023-02-27T09:37:41,BLK 451 SENGKANG WEST WAY,32538.8707,41769.3259,MULTI-STOREY CAR PARK,ELECTRONIC PARKING,WHOLE DAY,NO,YES,11.0,2.15,N,1.394021103124232,103.87410393473561
233,C,116,SK71,2023-02-27T09:37:24,BLK 277 COMPASSVALE LINK,34774.0235,40448.7069,BASEMENT CAR PARK,ELECTRONIC PARKING,7AM-10.30PM,NO,NO,1.0,2.15,Y,1.382077469015427,103.89418824518275
317,C,246,SK43,2023-02-27T09:37:18,BLK 290 COMPASSVALE CRESCENT,35107.1095,42039.9623,MULTI-STOREY CAR PARK,ELECTRONIC PARKING,WHOLE DAY,SUN & PH FR 7AM-10.30PM,YES,12.0,2.15,N,1.3964681241488162,103.89718165705679
162,C,87,SK70,2023-02-27T09:37:25,BLK 273 COMPASSVALE LINK,34835.6667,40693.9897,BASEMENT CAR PARK,ELECTRONIC PARKING,7AM-10.30PM,NO,NO,1.0,2.15,Y,1.3842957031829366,103.89474221223843
296,C,180,SK92,2023-02-27T09:37:40,BLK 279 SENGKANG EAST AVE,34630.7775,40899.9535,MULTI-STOREY CAR PARK,ELECTRONIC PARKING,WHOLE DAY,SUN & PH FR 7AM-10.30PM,YES,11.0,2.15,N,1.386158412237721,103.89290117505988
354,C,226,SK80,2023-02-27T09:37:44,BLK 434 FERNVALE ROAD,32808.4169,41758.3716,MULTI-STOREY CAR PARK,ELECTRONIC PARKING,WHOLE DAY,NO,YES,8.0,2.15,N,1.3939219929429265,103.87652601904689
200,C,131,SK72,2023-02-27T09:37:45,BLK 272 SENGKANG CENTRAL,34740.622,40787.4947,BASEMENT CAR PARK,ELECTRONIC PARKING,7AM-10.30PM,NO,NO,1.0,2.15,Y,1.3851413505292716,103.89388818553056
208,C,154,SK73,2023-02-27T09:37:19,BLK 270 SENGKANG CENTRAL,34780.2916,40894.8139,MULTI-STOREY CAR PARK,ELECTRONIC PARKING,7AM-10.30PM,NO,NO,10.0,2.15,N,1.386111897173606,103.89424467166346
94,C,49,SK83,2023-02-27T09:37:31,BLK 450 SENGKANG WEST WAY,32461.1013,41787.9348,MULTI-STOREY CAR PARK,ELECTRONIC PARKING,7AM-10.30PM,NO,NO,7.0,2.15,N,1.394189407365092,103.87340511790634
374,C,277,SK86,2023-02-27T09:37:27,BLK 432 SENGKANG WEST WAY,32878.9647,41809.1498,MULTI-STOREY CAR PARK,ELECTRONIC PARKING,7AM-10.30PM,NO,NO,8.0,2.15,N,1.3943812008338834,103.87715995536384
264,C,173,SK78,2023-02-27T09:37:34,BLK 443 FERNVALE ROAD,32535.1306,41510.8896,MULTI-STOREY CAR PARK,ELECTRONIC PARKING,7AM-10.30PM,SUN & PH FR 7AM-10.30PM,NO,8.0,2.15,N,1.3916838991563543,103.87407028683972
233,C,127,SK68,2023-02-27T09:37:24,BLK 275 COMPASSVALE LINK,34780.0509,40557.9461,BASEMENT CAR PARK,ELECTRONIC PARKING,7AM-10.30PM,NO,NO,1.0,2.15,Y,1.383065387262926,103.89424243103586
700,C,514,SK3,2023-02-27T09:37:35,BLK 205D COMPASSVALE LANE,35134.3189,40887.3355,MULTI-STOREY CAR PARK,ELECTRONIC PARKING,WHOLE DAY,SUN & PH FR 7AM-10.30PM,YES,12.0,2.15,N,1.3860441807607229,103.89742587393226
1164,C,857,SK58,2023-02-27T09:37:24,BLK 413 FERNVALE LINK,32996.0569,41263.3008,MULTI-STOREY CAR PARK,ELECTRONIC PARKING,WHOLE DAY,SUN & PH FR 7AM-10.30PM,YES,9.0,2.15,N,1.3894447199134667,103.87821202833331
646,C,473,SK62,2019-11-01T10:05:39,BLK 408 FERNVALE RD,32829.9567,41201.1613,MULTI-STOREY CAR PARK,ELECTRONIC PARKING,WHOLE DAY,SUN & PH FR 7AM-10.30PM,YES,9.0,2.15,N,1.3888827807769937,103.87671947913601
113,C,78,SK87,2023-02-27T09:37:39,BLK 448 SENGKANG WEST WAY,32429.5956,41673.2254,MULTI-STOREY CAR PARK,ELECTRONIC PARKING,7AM-10.30PM,NO,NO,7.0,2.15,N,1.3931520218095492,103.873121996799
517,C,457,CK3A,2023-02-27T09:37:52,BLK 118A TECK WHYE LANE,18725.4974,40162.9532,MULTI-STOREY CAR PARK,ELECTRONIC PARKING,WHOLE DAY,SUN & PH FR 7AM-10.30PM,YES,12.0,2.15,N,1.3794925303032597,103.74998034167601
282,C,189,CK3,2023-02-27T09:37:34,BLK 118/124 TECK WHYE LANE,18734.6348,40064.9164,SURFACE CAR PARK,ELECTRONIC PARKING,NO,SUN & PH FR 7AM-10.30PM,YES,0.0,0.0,N,1.3786059243997977,103.75006247869959
356,C,206,CK55,2023-02-27T09:38:01,BLK 631-637 & 636A CHOA CHU KANG NORTH 6,18561.8248,42111.2701,COVERED CAR PARK,ELECTRONIC PARKING,7AM-10.30PM,SUN & PH FR 7AM-10.30PM,NO,0.0,2.15,N,1.3971123380650974,103.74850899592623
26,C,9,CK29,2023-02-27T09:37:39,BLK 276/277 CHOA CHU KANG AVENUE 2,18072.2888,40190.9725,SURFACE CAR PARK,ELECTRONIC PARKING,7AM-10.30PM,SUN & PH FR 7AM-10.30PM,NO,0.0,0.0,N,1.379745712337052,103.74411077646073
184,C,127,CK28,2023-02-27T09:37:47,BLK 276A CHOA CHU KANG AVENUE 2,18079.0694,40228.4669,MULTI-STOREY CAR PARK,ELECTRONIC PARKING,WHOLE DAY,SUN & PH FR 7AM-10.30PM,YES,10.0,2.0,N,1.3800848001567996,103.74417169247384
289,C,164,AM22,2023-02-27T09:35:58,BLK 316B ANG MO KIO STREET 31,29595.2539,38514.7606,MULTI-STOREY CAR PARK,ELECTRONIC PARKING,WHOLE DAY,SUN & PH FR 7AM-10.30PM,YES,12.0,2.15,N,1.3645882914751233,103.84765302635255
676,C,506,AM20,2023-02-27T09:35:58,BLK 309B ANG MO KIO ST 31,29421.1502,38526.8611,MULTI-STOREY CAR PARK,ELECTRONIC PARKING,WHOLE DAY,SUN & PH FR 7AM-10.30PM,YES,12.0,2.15,N,1.3646977329371157,103.84608858611787
451,C,256,AM18,2023-02-27T09:35:58,BLK 308C ANG MO KIO AVE 1,29257.6457,38619.9953,MULTI-STOREY CAR PARK,ELECTRONIC PARKING,7AM-10.30PM,NO,NO,3.0,2.15,N,1.3655400127862602,103.84461939021944
83,C,0,A20,2023-02-27T09:36:58,BLK 304/307/319 ANG MO KIO ST 31,29684.7366,38554.0251,SURFACE CAR PARK,ELECTRONIC PARKING,WHOLE DAY,SUN & PH FR 7AM-10.30PM,YES,0.0,4.5,N,1.3649433806415399,103.8484570918218
97,C,74,A65,2023-02-27T09:35:23,BLK 558/560 ANG MO KIO STREET 54,30904.46,39226.97,SURFACE CAR PARK,ELECTRONIC PARKING,WHOLE DAY,SUN & PH FR 7AM-10.30PM,YES,0.0,4.5,N,1.371029158960113,103.85941720762483
517,C,344,A60,2023-02-27T09:36:50,BLK 540/546 ANG MO KIO ST 54,30514.5273,39606.8281,SURFACE CAR PARK,ELECTRONIC PARKING,WHOLE DAY,SUN & PH FR 7AM-10.30PM,YES,0.0,4.5,N,1.3744644954379803,103.85591341875072
206,C,101,A50,2023-02-27T09:36:21,BLK 548/552/556 ANG MO KIO STREET 54,30703.29,39392.09,SURFACE CAR PARK,ELECTRONIC PARKING,WHOLE DAY,SUN & PH FR 7AM-10.30PM,YES,0.0,4.5,N,1.3725224642422442,103.85760956795316
116,C,54,HG22,2023-02-27T09:35:26,BLK 154-157 HOUGANG STREET 11,33243.2373,37175.2101,SURFACE CAR PARK,ELECTRONIC PARKING,7AM-10.30PM,SUN & PH FR 7AM-10.30PM,NO,0.0,4.5,N,1.3524734570237964,103.88043241313854
161,C,87,CK25,2023-02-27T09:37:48,BLK 352-355 CHOA CHU KANG CENTRAL,18031.459,40472.3086,SURFACE CAR PARK,ELECTRONIC PARKING,7AM-10.30PM,NO,NO,0.0,0.0,N,1.3822899983079155,103.74374379564664
48,C,22,CK24,2023-02-27T09:37:40,BLK 350-351 CHOA CHU KANG CENTRAL,17983.1711,40586.8844,SURFACE CAR PARK,ELECTRONIC PARKING,7AM-10.30PM,NO,NO,0.0,0.0,N,1.383326163012073,103.74330985413658
274,C,92,STAM,2023-02-27T09:24:15,BLK 56A STRATHMORE AVENUE,25398.1488,30582.3365,MULTI-STOREY CAR PARK,ELECTRONIC PARKING,WHOLE DAY,SUN & PH FR 7AM-10.30PM,YES,12.0,2.15,N,1.29285019100066,103.80993984128204
472,C,342,AM79,2023-02-27T09:35:01,BLK 596 ANG MO KIO STREEET 52,30004.2224,39370.6063,MULTI-STOREY CAR PARK,ELECTRONIC PARKING,WHOLE DAY,SUN & PH FR 7AM-10.30PM,YES,12.0,2.15,N,1.3723282292064205,103.85132794564865
220,C,113,A34,2023-02-27T09:36:27,BLK 422/425 ANG MO KIO ST 42,30042.0,38931.43,SURFACE CAR PARK,ELECTRONIC PARKING,WHOLE DAY,SUN & PH FR 7AM-10.30PM,YES,0.0,0.0,N,1.3683564732190312,103.85166737410165
525,C,386,AM96,2023-02-27T09:35:37,BLK 352A ANG MO KIO STREET 32,29961.0968,38457.9118,MULTI-STOREY CAR PARK,ELECTRONIC PARKING,WHOLE DAY,SUN & PH FR 7AM-10.30PM,YES,12.0,2.15,N,1.3640741492788182,103.85094037122893
93,C,54,A85,2023-02-27T09:36:26,BLK 340 ANG MO KIO ST 32,29824.1,38572.16,SURFACE CAR PARK,ELECTRONIC PARKING,7AM-10.30PM,SUN & PH FR 7AM-10.30PM,NO,0.0,0.0,N,1.36510737794777,103.84970936855984
358,C,226,A72,2023-02-27T09:36:58,BLK 633/640 ANG MO KIO ST 61,29136.44,40303.05,SURFACE CAR PARK,ELECTRONIC PARKING,WHOLE DAY,SUN & PH FR 7AM-10.30PM,YES,0.0,5.4,N,1.3807609626573356,103.84353033817386
717,C,458,A67,2023-02-27T09:36:57,BLK 605/612 ANG MO KIO AVE 4/5,28499.27,40184.22,SURFACE CAR PARK,ELECTRONIC PARKING,WHOLE DAY,SUN & PH FR 7AM-10.30PM,YES,0.0,0.0,N,1.3796863244461326,103.83780488938889
10,H,0,SK51,2023-02-27T09:32:43,BLK 325 SENGKANG EAST WAY,34472.1598,41724.1866,MULTI-STOREY CAR PARK,ELECTRONIC PARKING,WHOLE DAY,SUN & PH FR 7AM-10.30PM,YES,12.0,2.15,N,1.3936125125577126,103.8914760567716
361,C,304,BMVM,2023-02-27T09:37:09,BLK 126A BUKIT MERAH VIEW,26866.0055,29672.9702,MULTI-STOREY CAR PARK,ELECTRONIC PARKING,WHOLE DAY,SUN & PH FR 7AM-10.30PM,YES,11.0,1.9,N,1.2846262894692295,103.82312918959775
148,C,12,HE3,2023-02-27T09:35:59,BLK 116/117 BUKIT MERAH VIEW,26708.25,29683.2227,SURFACE CAR PARK,ELECTRONIC PARKING,WHOLE DAY,SUN & PH FR 7AM-10.30PM,YES,0.0,0.0,N,1.2847190033878992,103.82171169354866
51,C,0,TB2,2023-02-27T09:36:06,BLK 8-10 TELOK BLANGAH CRES,26444.6627,28896.6707,SURFACE CAR PARK,ELECTRONIC PARKING,7AM-10.30PM,NO,NO,0.0,0.0,N,1.2776056911548443,103.81934329580679
360,C,0,JKM,2023-02-27T09:36:19,BLK 8A JALAN KUKOH MSCP,28629.3066,29963.8422,MULTI-STOREY CAR PARK,ELECTRONIC PARKING,WHOLE DAY,SUN & PH FR 7AM-10.30PM,YES,3.0,1.98,N,1.2872568479780275,103.83897315415314
42,C,1,JKS,2023-02-27T09:36:19,BLK 1 JALAN KUKOH CAR PARK,28703.5642,30064.2195,SURFACE CAR PARK,ELECTRONIC PARKING,WHOLE DAY,SUN & PH FR 7AM-10.30PM,YES,0.0,0.0,N,1.288164623459074,103.83964039101394
719,C,709,SPM,2023-02-27T09:35:55,BLK 108 SPOTTISWOODE PARK MSCP,28257.4232,28489.7651,MULTI-STOREY CAR PARK,ELECTRONIC PARKING,WHOLE DAY,SUN & PH FR 7AM-10.30PM,YES,5.0,1.9,N,1.2739258167233862,103.83563161921123
256,C,156,FR2C,2023-02-27T09:36:14,BLK 3/4 QUEEN'S ROAD,25150.3008,33394.0586,COVERED CAR PARK,ELECTRONIC PARKING,WHOLE DAY,NO,YES,0.0,2.4,N,1.3182783907026883,103.80771256448324
414,C,129,GM1A,2023-02-27T09:36:17,BLK 2A GHIM MOH ROAD,22836.9123,32767.7127,MULTI-STOREY CAR PARK,ELECTRONIC PARKING,WHOLE DAY,SUN & PH FR 7AM-10.30PM,YES,2.0,2.15,N,1.3126136388646843,103.78692568583948
419,C,225,AR5M,2023-02-27T09:36:00,BLK 19A DOVER CRESCENT,22562.8641,32184.9758,MULTI-STOREY CAR PARK,ELECTRONIC PARKING,WHOLE DAY,SUN & PH FR 7AM-10.30PM,YES,12.0,2.15,N,1.3073435265931934,103.78446333008445
64,C,0,AR9,2023-02-27T09:36:00,BLK 20/22/23 DOVER CRESCENT,22448.9368,32178.436,SURFACE CAR PARK,ELECTRONIC PARKING,7AM-10.30PM,SUN & PH FR 7AM-10.30PM,NO,0.0,0.0,N,1.3072843627095632,103.78343964059559
361,C,70,C5,2023-02-27T09:36:05,"BLK 358-360,362-363,366-367 CLEMENTI AVE 2",20905.8297,32821.8286,SURFACE CAR PARK,ELECTRONIC PARKING,WHOLE DAY,SUN & PH FR 7AM-10.30PM,YES,0.0,0.0,N,1.313102659052513,103.76957394864732
316,C,145,C9,2023-02-27T09:35:52,BLK 340/342/343/346-348 CLEMENTI AVE 5,20988.0194,33324.5654,SURFACE CAR PARK,ELECTRONIC PARKING,WHOLE DAY,SUN & PH FR 7AM-10.30PM,YES,0.0,5.4,N,1.317649249239499,103.77031234940915
241,C,156,U46,2023-02-27T09:35:27,BLK 297 - 299 BUKIT BATOK ST 22 BUKIT BATOK STREET 22,18463.4479,36256.9749,SURFACE CAR PARK,ELECTRONIC PARKING,7AM-10.30PM,SUN & PH FR 7AM-10.30PM,NO,0.0,0.0,N,1.3441682107567325,103.74762688341653
419,C,216,U15,2023-02-27T09:35:33,BLK 231/237 BUKIT BATOK EAST AVENUE 5,19332.565,36778.361,SURFACE CAR PARK,ELECTRONIC PARKING,WHOLE DAY,SUN & PH FR 7AM-10.30PM,YES,0.0,5.4,N,1.348883700209531,103.75543627209319
159,C,83,U3,2023-02-27T09:35:31,BLK 133/139 BUKIT BATOK WEST AVENUE 6,18098.9773,37055.7538,SURFACE CAR PARK,ELECTRONIC PARKING,WHOLE DAY,SUN & PH FR 7AM-10.30PM,YES,0.0,4.5,N,1.3513919565445387,103.74435163478552
128,C,82,U32,2023-02-27T09:35:28,BLKS 512-514 BUKIT BATOK STREET 52,19018.5011,37355.1895,SURFACE CAR PARK,ELECTRONIC PARKING,7AM-10.30PM,SUN & PH FR 7AM-10.30PM,NO,0.0,4.5,N,1.3541002341981279,103.75261404178208
329,C,277,B75,2023-02-27T09:37:33,BLK 613C BEDOK RESERVOIR ROAD,37379.8318,35029.8453,MULTI-STOREY CAR PARK,ELECTRONIC PARKING,WHOLE DAY,SUN & PH FR 7AM-10.30PM,YES,12.0,2.15,N,1.33307054846192,103.91760166991952
115,C,53,U38,2023-02-27T09:37:22,BLK 185/187 BUKIT BATOK WEST AVENUE 6,18124.0483,36539.8249,SURFACE CAR PARK,ELECTRONIC PARKING,7AM-10.30PM,SUN & PH FR 7AM-10.30PM,NO,0.0,0.0,N,1.3467260929497105,103.74457708245431
214,C,124,U10,2023-02-27T09:36:50,BLK 178/184 BUKIT BATOK WEST AVENUE 8,18029.1321,36437.8173,SURFACE CAR PARK,ELECTRONIC PARKING,WHOLE DAY,SUN & PH FR 7AM-10.30PM,YES,0.0,0.0,N,1.3458035421982828,103.7437242364325
347,C,254,C8,2023-02-27T09:37:42,BLK 335/338 CLEMENTI AVE 2,20800.9102,33216.8047,SURFACE CAR PARK,ELECTRONIC PARKING,WHOLE DAY,SUN & PH FR 7AM-10.30PM,YES,0.0,4.5,N,1.3166746567863563,103.76863110345576
543,C,441,J60M,2023-02-27T09:37:46,505A JURONG WEST ST 52,15155.3093,36830.6309,MULTI-STOREY CAR PARK,ELECTRONIC PARKING,WHOLE DAY,NO,YES,13.0,2.15,N,1.3493549092892663,103.71790104604126
27,C,0,J38,2023-02-27T09:37:42,BLK 505/508 JURONG WEST STREET 52,15231.4766,36804.4414,SURFACE CAR PARK,ELECTRONIC PARKING,WHOLE DAY,NO,YES,0.0,4.5,N,1.349118093824851,103.71858546676636
343,C,234,UBKM,2023-02-27T09:35:49,BLK 13A UPPER BOON KENG ROAD,32179.7655,33010.5845,MULTI-STOREY CAR PARK,ELECTRONIC PARKING,WHOLE DAY,SUN & PH FR 7AM-10.30PM,YES,12.0,2.15,N,1.3148102349625546,103.8708758709946
287,C,143,UBK2,2023-02-27T09:35:49,BLK 11/15/18 UPPER BOON KENG,32237.8125,33097.6016,SURFACE CAR PARK,ELECTRONIC PARKING,WHOLE DAY,SUN & PH FR 7AM-10.30PM,YES,0.0,4.5,N,1.3155971787692966,103.87139746428335
143,C,98,UBK5,2023-02-27T09:35:28,BLK 38/39 UPPER BOON KENG,32522.9258,33422.543,SURFACE CAR PARK,ELECTRONIC PARKING,WHOLE DAY,SUN & PH FR 7AM-10.30PM,YES,0.0,3.25,N,1.3185357926226624,103.87395939841554
427,C,274,U17,2023-02-27T09:38:03,BLK 242/253 BUKIT BATOK EAST AVE 2/5,19484.9573,36912.4024,SURFACE CAR PARK,ELECTRONIC PARKING,WHOLE DAY,SUN & PH FR 7AM-10.30PM,YES,0.0,5.4,N,1.350095965597911,103.7568055731971
259,C,150,U4,2023-02-27T09:37:52,BLK 140/143 BUKIT BATOK STREET 11,17973.0318,36974.1108,SURFACE CAR PARK,ELECTRONIC PARKING,WHOLE DAY,SUN & PH FR 1PM-10.30PM,YES,0.0,0.0,N,1.3506535652301455,103.74321996303739
516,C,309,U1,2023-02-27T09:37:40,BLK 101/110 BUKIT BATOK WEST AVE 6,18391.6404,36723.769,SURFACE CAR PARK,ELECTRONIC PARKING,WHOLE DAY,SUN & PH FR 7AM-10.30PM,YES,0.0,4.5,N,1.3483897030178118,103.74698150151255
4,C,1,TGML,2023-02-27T09:37:45,BLK 64 AND 65 TEBAN GARDENS RD,17541.2774,33778.08,SURFACE CAR PARK,ELECTRONIC PARKING,NO,NO,NO,0.0,0.0,N,1.3217496873149595,103.73934148022144
11,C,6,BRBL,2023-02-27T09:38:05,BLK 665 BUFFALO ROAD LOADING/UNLOADING BAYS,29935.2249,32102.3708,SURFACE CAR PARK,ELECTRONIC PARKING,NO,NO,NO,0.0,0.0,N,1.3065968942240478,103.85070749100312
401,C,328,BL18,2023-02-27T09:37:46,BLK 208A BOON LAY PLACE,14768.3178,36520.4472,MULTI-STOREY CAR PARK,ELECTRONIC PARKING,WHOLE DAY,SUN & PH FR 7AM-10.30PM,YES,10.0,2.15,N,1.346549555712571,103.71442382780704
168,C,89,BRB1,2023-02-27T09:38:05,BLK 665 BUFFALO ROAD BASEMENT CAR PARK,29921.7021,32043.75,BASEMENT CAR PARK,ELECTRONIC PARKING,WHOLE DAY,NO,YES,1.0,1.8,Y,1.306066749235348,103.85058597863153
779,C,520,J61,2023-02-27T09:37:43,BLK 912/932 JURONG WEST STREET 92,11874.875,35804.875,SURFACE CAR PARK,ELECTRONIC PARKING,WHOLE DAY,SUN & PH FR 7AM-10.30PM,YES,0.0,9.99,N,1.340076780003902,103.68842490797132
713,C,488,J73,2023-02-27T09:37:51,BLK 719/731 JURONG WEST STREET 72,12965.2227,36238.1133,SURFACE CAR PARK,ELECTRONIC PARKING,WHOLE DAY,SUN & PH FR 7AM-10.30PM,YES,0.0,9.99,N,1.3439953859260412,103.69822208525477
367,C,240,J74,2023-02-27T09:37:38,BLK 711/718 JURONG WEST STREET 71,12730.417,36090.9727,SURFACE CAR PARK,ELECTRONIC PARKING,WHOLE DAY,SUN & PH FR 7AM-10.30PM,YES,0.0,9.99,N,1.342664584069249,103.69611229344058
248,C,228,U39,2023-02-27T09:38:00,BLK 631 BUKIT BATOK CENTRAL,18837.6188,36875.2113,MULTI-STOREY CAR PARK,ELECTRONIC PARKING,WHOLE DAY,SUN & PH FR 7AM-10.30PM,YES,2.0,1.9,N,1.3497594316284736,103.75098884548056
288,C,267,U40,2023-02-27T09:37:57,BLK 644A BUKIT BATOK CENTRAL,18879.8441,36750.5885,MULTI-STOREY CAR PARK,ELECTRONIC PARKING,WHOLE DAY,SUN & PH FR 7AM-10.30PM,YES,10.0,1.9,N,1.348632401397121,103.75136830370467
28,C,6,U41,2023-02-27T09:38:01,BLK 632/644 BUKIT BATOK CENTRAL,18955.5289,36844.8175,SURFACE CAR PARK,ELECTRONIC PARKING,WHOLE DAY,SUN & PH FR 7AM-10.30PM,YES,0.0,4.0,N,1.3494845970551772,103.75204834998094
882,C,212,C3M,2023-02-27T09:26:04,BLK 416A CLEMENTI AVE 1,20967.8189,32458.1382,MULTI-STOREY CAR PARK,ELECTRONIC PARKING,WHOLE DAY,SUN & PH FR 7AM-10.30PM,YES,2.0,2.15,N,1.309813587633046,103.77013103455899
392,C,158,C4M,2023-02-27T09:28:10,BLK 413A COMMONWEALTH AVENUE WEST,21009.1656,32642.4126,MULTI-STOREY CAR PARK,ELECTRONIC PARKING,WHOLE DAY,SUN & PH FR 7AM-10.30PM,YES,9.0,2.0,N,1.3114801086975745,103.77050251295181
147,C,74,J70,2023-02-27T09:38:06,BLK 835/838 JURONG WEST STREET 81,12440.6748,36204.0469,SURFACE CAR PARK,ELECTRONIC PARKING,WHOLE DAY,SUN & PH FR 7AM-10.30PM,YES,0.0,4.5,N,1.3436870354700452,103.69350873447144
326,C,217,J75M,2023-02-27T09:37:42,BLK 841A JURONG WEST STREET 81,12397.1268,36260.1612,MULTI-STOREY CAR PARK,ELECTRONIC PARKING,WHOLE DAY,SUN & PH FR 7AM-10.30PM,YES,10.0,1.9,N,1.3441944891692896,103.69311740148584
490,C,428,JM15,2023-02-27T09:35:24,BLK 617A JURONG WEST STREET 65,13172.241,35894.5938,MULTI-STOREY CAR PARK,ELECTRONIC PARKING,WHOLE DAY,SUN & PH FR 7AM-10.30PM,YES,12.0,2.15,N,1.3408888288394545,103.70008243365508
559,C,444,JM18,2023-02-27T09:35:19,BLK 629A JURONG WEST ST 65,13110.6908,36127.6675,MULTI-STOREY CAR PARK,ELECTRONIC PARKING,WHOLE DAY,SUN & PH FR 7AM-10.30PM,YES,12.0,2.15,N,1.3429966284896666,103.69952925533713
450,C,55,C24,2023-02-27T09:24:11,BLK 110/118 CLEMENTI STREET 13,21096.4707,34048.6484,SURFACE CAR PARK,ELECTRONIC PARKING,WHOLE DAY,SUN & PH FR 7AM-10.30PM,YES,0.0,4.5,N,1.3241976206862742,103.77128667696404
16,C,0,C27,2023-02-27T09:26:16,BLK 108/109 CLEMENTI STREET 11,21010.3372,33832.437,SURFACE CAR PARK,ELECTRONIC PARKING,WHOLE DAY,SUN & PH FR 7AM-10.30PM,YES,0.0,4.3,N,1.322242262816822,103.77051277091039
512,C,330,KTM5,2023-02-27T09:26:05,BLK 126 KIM TIAN ROAD,27570.7265,29441.0716,MULTI-STOREY CAR PARK,ELECTRONIC PARKING,WHOLE DAY,NO,YES,10.0,2.15,N,1.2825290974366843,103.82946139003299
252,C,248,KTM6,2019-08-01T08:03:57,BLK 127 KIM TIAN ROAD,27546.4706,29366.694,MULTI-STOREY CAR PARK,ELECTRONIC PARKING,WHOLE DAY,NO,YES,6.0,2.15,N,1.2818564521671447,103.82924344240905
466,C,247,BP2,2023-02-27T09:37:43,BLK 110/115 BUKIT PURMEI ROAD,27297.2734,28508.1074,SURFACE CAR PARK,ELECTRONIC PARKING,7AM-10.30PM,SUN & PH FR 7AM-10.30PM,NO,0.0,1.9,N,1.2740916912710758,103.82700432828176
1210,C,856,BBM3,2023-02-27T09:35:26,BLK 289H BUKIT BATOK STREET 25,19831.2917,36294.3127,MULTI-STOREY CAR PARK,ELECTRONIC PARKING,WHOLE DAY,SUN & PH FR 7AM-10.30PM,YES,12.0,2.15,N,1.344506283225649,103.75991777083962
951,C,661,BBM5,2023-02-27T09:35:25,BLK 290H BUKIT BATOK STREET 24,19610.472,36154.6192,MULTI-STOREY CAR PARK,ELECTRONIC PARKING,WHOLE DAY,SUN & PH FR 7AM-10.30PM,YES,4.0,2.0,N,1.3432428850770275,103.75793361152421
290,C,181,U33,2023-02-27T09:35:26,BLKS 535-542 BUKIT BATOK STREET 51/52,18873.0414,37452.2798,SURFACE CAR PARK,ELECTRONIC PARKING,WHOLE DAY,SUN & PH FR 7AM-10.30PM,YES,0.0,4.5,N,1.354978239253692,103.75130696430529
303,C,179,U34,2023-02-27T09:35:26,BLKS 501-511 BUKIT BATOK ST 52,19139.7066,37093.5044,SURFACE CAR PARK,ELECTRONIC PARKING,WHOLE DAY,SUN & PH FR 7AM-10.30PM,YES,0.0,4.5,N,1.3517336858231854,103.75370322750783
285,C,202,J84M,2023-02-27T09:35:21,BLK 854A JURONG WEST ST 81,12771.2097,36650.4919,MULTI-STOREY CAR PARK,ELECTRONIC PARKING,WHOLE DAY,SUN & PH FR 7AM-10.30PM,YES,10.0,2.0,N,1.3477246830725262,103.69647855749301
166,C,84,J85M,2023-02-27T09:35:20,BLK 859A JURONG WEST ST 81,12744.1045,36899.5648,MULTI-STOREY CAR PARK,ELECTRONIC PARKING,WHOLE DAY,SUN & PH FR 7AM-10.30PM,YES,8.0,2.0,N,1.3499771895467572,103.69623487505143
207,C,39,Q84,2023-02-27T09:31:00,BLK 2/4/6/31/32 HOLLAND CLOSE,23921.707,32122.75,SURFACE CAR PARK,ELECTRONIC PARKING,WHOLE DAY,SUN & PH FR 7AM-10.30PM,YES,0.0,4.5,N,1.3067809877783394,103.79667318529349
430,C,291,Q87,2023-02-27T09:31:01,BLK 5A HOLLAND CLOSE,23873.3239,32354.7312,MULTI-STOREY CAR PARK,ELECTRONIC PARKING,WHOLE DAY,SUN & PH FR 7AM-10.30PM,YES,11.0,2.0,N,1.3088789371038347,103.79623840948703
435,C,300,Q89,2023-02-27T09:31:01,BLK 7B COMMONWEALTH AVENUE,23741.0378,32063.6114,MULTI-STOREY CAR PARK,ELECTRONIC PARKING,WHOLE DAY,SUN & PH FR 7AM-10.30PM,YES,11.0,2.0,N,1.3062461348732004,103.79504979530897
46,C,14,BM5,2023-02-27T09:28:58,BLKS 8/10 JALAN RUMAH TINGGI,25139.9101,30093.7491,SURFACE CAR PARK,ELECTRONIC PARKING,7AM-7PM,NO,NO,0.0,4.5,N,1.288431556063423,103.80761950142214
58,C,0,TB1,2023-02-27T09:31:01,BLK 1/2/3/4/6 TELOK BLANGAH CRES,26359.0527,28989.3284,SURFACE CAR PARK,ELECTRONIC PARKING,7AM-10.30PM,NO,NO,0.0,4.5,N,1.2784436505669505,103.81857405338053
154,C,17,TB3,2023-02-27T09:31:00,BLK 12/22 TELOK BLANGAH CRES,26458.5039,28811.9141,SURFACE CAR PARK,ELECTRONIC PARKING,WHOLE DAY,NO,YES,0.0,0.0,N,1.2768391828598684,103.81946766823727
77,C,5,TB9,2023-02-27T09:24:04,BLK 32/35 TELOK BLANGAH RISE,26766.3105,28419.3515,SURFACE CAR PARK,ELECTRONIC PARKING,WHOLE DAY,SUN & PH FR 7AM-10.30PM,YES,0.0,5.4,N,1.2732889977607433,103.82223343925568
106,C,18,TBC3,2023-02-27T09:31:01,BLK 3A TELOK BLANGAH CRESCENT,26248.2192,29055.7391,MULTI-STOREY CAR PARK,ELECTRONIC PARKING,WHOLE DAY,SUN & PH FR 7AM-10.30PM,YES,8.0,2.15,N,1.2790442396857162,103.8175781692424
35,C,24,C26,2023-02-27T09:26:16,BLK 105-107 CLEMENTI STREET 12,20945.3775,33870.6421,SURFACE CAR PARK,ELECTRONIC PARKING,WHOLE DAY,SUN & PH FR 7AM-10.30PM,YES,0.0,4.3,N,1.3225877610866086,103.76992906520302
154,C,36,C25,2023-02-27T09:26:16,BLK 101-104 CLEMENTI STREET 14,20840.7482,33844.4911,SURFACE CAR PARK,ELECTRONIC PARKING,WHOLE DAY,SUN & PH FR 7AM-10.30PM,YES,0.0,4.5,N,1.3223512364917513,103.76898892209648
188,C,145,C22M,2023-02-27T09:26:16,BLK 109A CLEMENTI ST 11,20991.1005,33766.9817,MULTI-STOREY CAR PARK,ELECTRONIC PARKING,WHOLE DAY,SUN & PH FR 7AM-10.30PM,YES,6.0,1.9,N,1.3216503041788228,103.77033993399925
1165,C,942,JM7,2023-02-27T09:37:50,BLK 669 JURONG WEST ST 64,13497.6635,36071.1758,MULTI-STOREY CAR PARK,ELECTRONIC PARKING,WHOLE DAY,SUN & PH FR 7AM-10.30PM,YES,12.0,2.1,N,1.342485928006727,103.70300645678557
754,C,627,JM30,2023-02-27T09:37:57,BLK 271 JURONG WEST ST 24,13595.4624,36957.2314,MULTI-STOREY CAR PARK,ELECTRONIC PARKING,WHOLE DAY,SUN & PH FR 7AM-10.30PM,YES,10.0,2.15,N,1.3504991263574488,103.70388481388862
220,C,135,J72,2023-02-27T09:37:47,BLK 743/751 JURONG WEST STREET 73,12910.9012,36599.9072,SURFACE CAR PARK,ELECTRONIC PARKING,WHOLE DAY,SUN & PH FR 7AM-10.30PM,YES,0.0,9.99,N,1.3472672849626481,103.69773379422605
222,C,138,J69,2023-02-27T09:38:34,BLK 974/980 JURONG WEST STREET 93,12455.3311,35761.7852,SURFACE CAR PARK,ELECTRONIC PARKING,WHOLE DAY,SUN & PH FR 7AM-10.30PM,YES,0.0,4.0,N,1.3396873972151573,103.69364065669575
793,C,227,JM23,2019-12-01T08:16:38,BLK 276 JURONG WEST STREET 25,13584.64,37295.9859,MULTI-STOREY CAR PARK,ELECTRONIC PARKING,WHOLE DAY,SUN & PH FR 7AM-10.30PM,YES,12.0,2.15,N,1.353562688433662,103.703787405644
1176,C,844,JM19,2023-02-27T09:38:06,BLK 273 JURONG WEST AVENUE 3,13477.0963,37120.2881,MULTI-STOREY CAR PARK,ELECTRONIC PARKING,WHOLE DAY,SUN & PH FR 7AM-10.30PM,YES,13.0,2.15,N,1.351973692062514,103.7028211437118
270,C,168,U43,2023-02-27T09:37:27,BLK 404A BUKIT BATOK WEST AVENUE 7,18275.4565,38569.6475,MULTI-STOREY CAR PARK,ELECTRONIC PARKING,WHOLE DAY,SUN & PH FR 7AM-10.30PM,YES,10.0,1.9,N,1.365083113738148,103.74593691879788
495,C,238,W21,2023-02-27T09:37:31,BLK 167-179 WOODLANDS ST 13,21847.2739,46264.664,SURFACE CAR PARK,ELECTRONIC PARKING,7AM-10.30PM,SUN & PH FR 7AM-10.30PM,NO,0.0,4.5,N,1.434675002710204,103.77803049237754
557,C,272,W24,2023-02-27T09:37:26,BLK 321-335 WOODLANDS STREET 32,21992.0066,45860.9547,SURFACE CAR PARK,ELECTRONIC PARKING,WHOLE DAY,SUN & PH FR 7AM-10.30PM,YES,0.0,4.5,N,1.431024034840675,103.77933113821588
424,C,276,M25,2023-02-27T09:37:49,BLK 53 TO 56/68/70/71/72 PIPIT RD/CIRCUIT RD,34105.2715,34051.7061,SURFACE CAR PARK,ELECTRONIC PARKING,WHOLE DAY,NO,YES,0.0,4.5,N,1.324225444310148,103.88817771100906
126,C,64,M3,2023-02-27T09:37:49,BLK 19 TO 21/23/24/30/32 BALAM RD,33830.3378,34765.5068,SURFACE CAR PARK,ELECTRONIC PARKING,7AM-10.30PM,SUN & PH FR 7AM-10.30PM,NO,0.0,4.5,N,1.3306808562275345,103.8857074211042
470,C,306,M4,2023-02-27T09:37:37,BLK 22/34/36 CIRCUIT RD,34047.6106,34582.1714,SURFACE CAR PARK,ELECTRONIC PARKING,WHOLE DAY,SUN & PH FR 7AM-10.30PM,YES,0.0,0.0,N,1.3290227940584043,103.88765970175464
176,C,130,MM1,2023-02-27T09:37:49,BLK 28A BALAM ROAD,33981.2699,34740.5471,MULTI-STOREY CAR PARK,ELECTRONIC PARKING,WHOLE DAY,NO,YES,10.0,2.0,N,1.330455100290608,103.88706362505674
563,C,485,MM2,2023-02-27T09:37:50,BLK 52A PIPIT ROAD,33873.4028,34064.3335,MULTI-STOREY CAR PARK,ELECTRONIC PARKING,WHOLE DAY,SUN & PH FR 7AM-10.30PM,YES,12.0,2.15,N,1.324339687506112,103.88609424966474
288,C,213,MM4,2023-02-27T09:37:49,BLK 31A CIRCUIT ROAD,33805.7605,34616.0975,MULTI-STOREY CAR PARK,ELECTRONIC PARKING,WHOLE DAY,SUN & PH FR 7AM-10.30PM,YES,11.0,2.15,N,1.3293296567041755,103.88548655203162
73,C,8,UA2,2023-02-27T09:37:43,BLK 3 TO 5 UPPER ALJUNIED LANE,33109.332,35098.3344,SURFACE CAR PARK,ELECTRONIC PARKING,WHOLE DAY,SUN & PH FR 7AM-10.30PM,YES,0.0,4.5,N,1.3336909599995777,103.87922883841429
245,C,143,UA3,2023-02-27T09:38:01,BLK 10/11/19 TO 21 JOO SENG ROAD,33265.027,35204.8735,SURFACE CAR PARK,ELECTRONIC PARKING,7AM-10.30PM,SUN & PH FR 7AM-10.30PM,NO,0.0,0.0,N,1.3346544348736076,103.88062786479004
337,C,181,UA5,2023-02-27T09:37:36,BLK 12 TO 18 JOO SENG ROAD,33326.6984,35410.4255,SURFACE CAR PARK,ELECTRONIC PARKING,7AM-10.30PM,SUN & PH FR 7AM-10.30PM,NO,0.0,5.4,N,1.3365133628413508,103.88118205349524
466,C,363,UAM1,2023-02-27T09:37:43,BLK 2A JOO SENG RD,33107.6324,35187.5516,MULTI-STOREY CAR PARK,ELECTRONIC PARKING,WHOLE DAY,SUN & PH FR 7AM-10.30PM,YES,12.0,2.15,N,1.334497808758929,103.87921358148903
180,C,112,JM31,2023-02-27T09:35:21,BLK 638A JURONG WEST ST 61,12894.0173,36018.9264,MULTI-STOREY CAR PARK,ELECTRONIC PARKING,WHOLE DAY,NO,YES,8.0,2.15,N,1.3420131073387194,103.69758237259093
1200,C,804,BBM9,2023-02-27T09:37:44,BLK 395A BUKIT BATOK WEST AVE 5,18924.8161,38652.2819,MULTI-STOREY CAR PARK,ELECTRONIC PARKING,WHOLE DAY,SUN & PH FR 7AM-10.30PM,YES,16.0,2.15,N,1.3658306352822907,103.75177182867174
383,C,180,C21M,2023-02-27T09:28:53,BLK 455A CLEMENTI AVE 3,20566.6991,32662.4476,MULTI-STOREY CAR PARK,ELECTRONIC PARKING,WHOLE DAY,SUN & PH FR 7AM-10.30PM,YES,12.0,2.15,N,1.311661194434806,103.76652673200101
661,C,402,U13,2023-02-27T09:37:56,BLK 212/230 BUKIT BATOK STREET 21,19086.17,36658.92,SURFACE CAR PARK,ELECTRONIC PARKING,WHOLE DAY,SUN & PH FR 7AM-10.30PM,YES,0.0,4.5,N,1.3478034470020681,103.75322229615706
280,C,120,C13M,2023-02-27T09:26:05,BLK 309A CLEMENTI AVE 4,20528.1198,33646.8063,MULTI-STOREY CAR PARK,ELECTRONIC PARKING,WHOLE DAY,SUN & PH FR 7AM-10.30PM,YES,7.0,2.15,N,1.3205633714110514,103.76617984015797
323,C,155,C12,2023-02-27T09:26:05,"BLK 301-302,305-308 CLEMENTI AVENUE 4",20519.9139,33782.4237,SURFACE CAR PARK,ELECTRONIC PARKING,WHOLE DAY,SUN & PH FR 7AM-10.30PM,YES,0.0,4.5,N,1.3217898443793465,103.76610607293537
212,C,90,C14M,2023-02-27T09:26:04,BLK 318A CLEMENTI AVE 4,20417.4455,33296.1766,MULTI-STOREY CAR PARK,ELECTRONIC PARKING,WHOLE DAY,SUN & PH FR 7AM-10.30PM,YES,2.0,2.15,N,1.31739237532048,103.76518546060076
